[{"id":2204013,"name":"Kahamlytska","name_slug":"kahamlytska","latitude":null,"longitude":null,"hits":209,"ibnr":null,"city":"","region":"","country":"Ukraina","localised_name":null,"is_group":false,"has_announcements":false},{"id":2100151,"name":"Lyusino","name_slug":"lyusino","latitude":52.6584744,"longitude":26.4895185,"hits":0,"ibnr":null,"city":"","region":"","country":"Białoruś","localised_name":null,"is_group":false,"has_announcements":false},{"id":16592,"name":"Wierzchucin","name_slug":"wierzchucin","latitude":53.5481705080276,"longitude":18.1123450777675,"hits":3245,"ibnr":239,"city":"Wierzchucin","region":"kujawsko-pomorskie","country":"Polska","localised_name":null,"is_group":false,"has_announcements":false},{"id":6114,"name":"Reda Pieleszewo","name_slug":"reda-pieleszewo","latitude":54.602711,"longitude":18.317535,"hits":3316,"ibnr":5520,"city":"Reda","region":"pomorskie","country":"Polska","localised_name":null,"is_group":false,"has_announcements":false},{"id":2208329,"name":"Ekspres","name_slug":"ekspres","latitude":46.585295,"longitude":32.9178938,"hits":0,"ibnr":null,"city":"","region":"","country":"Ukraina","localised_name":null,"is_group":false,"has_announcements":false},{"id":2218258,"name":"Prylutska","name_slug":"prylutska","latitude":50.7921392,"longitude":25.3759113,"hits":0,"ibnr":null,"city":"","region":"","country":"Ukraina","localised_name":null,"is_group":false,"has_announcements":false},{"id":901872,"name":"Chorki PKS","name_slug":"chorki-pks","latitude":null,"longitude":null,"hits":433,"ibnr":10020,"city":"","region":"","country":"Polska","localised_name":null,"is_group":false,"has_announcements":false},{"id":76190,"name":"Kozy Zagroda","name_slug":"kozy-zagroda","latitude":49.857578342769,"longitude":19.1633027917608,"hits":2221,"ibnr":4181,"city":"Kozy","region":"śląskie","country":"Polska","localised_name":null,"is_group":false,"has_announcements":false},{"id":2210748,"name":"Shmakove","name_slug":"shmakove","latitude":55.65712500000001,"longitude":37.5404869,"hits":0,"ibnr":null,"city":"","region":"","country":"Ukraina","localised_name":null,"is_group":false,"has_announcements":false},{"id":2210044,"name":"Ametkhan Sultan","name_slug":"ametkhan-sultan","latitude":45.1446022,"longitude":33.626102,"hits":0,"ibnr":null,"city":"","region":"","country":"Ukraina","localised_name":null,"is_group":false,"has_announcements":false},{"id":273,"name":"Szczecin Główny","name_slug":"szczecin-glowny","latitude":53.41889316,"longitude":14.55000116,"hits":4322,"ibnr":201,"city":"Szczecin","region":"zachodniopomorskie","country":"Polska","localised_name":null,"is_group":false,"has_announcements":false},{"id":2100742,"name":"Zheludok","name_slug":"zheludok","latitude":53.6253924,"longitude":24.8949664,"hits":191,"ibnr":null,"city":"","region":"","country":"Białoruś","localised_name":null,"is_group":false,"has_announcements":false},{"id":56903,"name":"Prudnik","name_slug":"prudnik","latitude":50.32944848,"longitude":17.58000142,"hits":3682,"ibnr":161,"city":"Prudnik","region":"opolskie","country":"Polska","localised_name":null,"is_group":false,"has_announcements":false},{"id":2218196,"name":"Bodnariv","name_slug":"bodnariv","latitude":49.035277,"longitude":24.5246984,"hits":0,"ibnr":null,"city":"","region":"","country":"Ukraina","localised_name":null,"is_group":false,"has_announcements":false},{"id":1000070,"name":"Adršpach","name_slug":"adrspach","latitude":50.615428,"longitude":16.124869,"hits":3314,"ibnr":9392,"city":"","region":"","country":"Czechy","localised_name":null,"is_group":false,"has_announcements":false},{"id":2210741,"name":"Kantserivka","name_slug":"kantserivka","latitude":47.8413099,"longitude":34.9502751,"hits":0,"ibnr":null,"city":"","region":"","country":"Ukraina","localised_name":null,"is_group":false,"has_announcements":false},{"id":50039,"name":"Puławy","name_slug":"pulawy","latitude":51.4117835360287,"longitude":22.009203709969,"hits":3564,"ibnr":2188,"city":"Puławy","region":"lubelskie","country":"Polska","localised_name":null,"is_group":false,"has_announcements":false},{"id":2100588,"name":"Vulka-Antopolskaya","name_slug":"vulka-antopolskaya","latitude":52.1843145,"longitude":24.8544382,"hits":0,"ibnr":null,"city":"","region":"","country":"Białoruś","localised_name":null,"is_group":false,"has_announcements":false},{"id":900958,"name":"Kluski PKS","name_slug":"kluski-pks","latitude":52.218394,"longitude":20.964047,"hits":1241,"ibnr":10234,"city":"","region":"","country":"Polska","localised_name":null,"is_group":false,"has_announcements":false},{"id":901139,"name":"Urbany PKS","name_slug":"urbany-pks","latitude":54.3567693,"longitude":18.6434363,"hits":1143,"ibnr":10318,"city":"","region":"","country":"Polska","localised_name":null,"is_group":false,"has_announcements":false},{"id":38885,"name":"Otwock","name_slug":"otwock","latitude":52.10833751,"longitude":21.26611282,"hits":4124,"ibnr":147,"city":"Otwock","region":"mazowieckie","country":"Polska","localised_name":null,"is_group":false,"has_announcements":false},{"id":901065,"name":"Puszcza Mariańska PKS","name_slug":"puszcza-marianska-pks","latitude":52.0292568,"longitude":20.4027291,"hits":1182,"ibnr":10091,"city":"","region":"","country":"Polska","localised_name":null,"is_group":false,"has_announcements":false},{"id":2204445,"name":"Zaliutyne","name_slug":"zaliutyne","latitude":49.9674779,"longitude":36.1615631,"hits":0,"ibnr":null,"city":"","region":"","country":"Ukraina","localised_name":null,"is_group":false,"has_announcements":false},{"id":2204,"name":"Stargard","name_slug":"stargard","latitude":53.33972649,"longitude":15.03166788,"hits":4259,"ibnr":198,"city":"Stargard","region":"zachodniopomorskie","country":"Polska","localised_name":null,"is_group":false,"has_announcements":false},{"id":2210174,"name":"Platforma 1134 Km","name_slug":"platforma-1134-km","latitude":47.5803062,"longitude":35.3027322,"hits":0,"ibnr":null,"city":"","region":"","country":"Ukraina","localised_name":null,"is_group":false,"has_announcements":false},{"id":2210957,"name":"Platforma 266 Km","name_slug":"platforma-266-km","latitude":47.5127031,"longitude":35.9946599,"hits":0,"ibnr":null,"city":"","region":"","country":"Ukraina","localised_name":null,"is_group":false,"has_announcements":false},{"id":900764,"name":"Letohrad","name_slug":"letohrad","latitude":50.03138,"longitude":16.5075,"hits":1226,"ibnr":9353,"city":"","region":"","country":"Czechy","localised_name":null,"is_group":false,"has_announcements":false},{"id":46581,"name":"Pabianice","name_slug":"pabianice","latitude":51.66250414,"longitude":19.32972378,"hits":4185,"ibnr":148,"city":"Pabianice","region":"łódzkie","country":"Polska","localised_name":null,"is_group":false,"has_announcements":false},{"id":258708,"name":"Sucha Beskidzka Zamek","name_slug":"sucha-beskidzka-zamek","latitude":49.74389278,"longitude":19.60319,"hits":3347,"ibnr":3392,"city":"Sucha Beskidzka","region":"małopolskie","country":"Polska","localised_name":null,"is_group":false,"has_announcements":false},{"id":2100554,"name":"Vorotishche","name_slug":"vorotishche","latitude":53.3535525,"longitude":26.5696495,"hits":0,"ibnr":null,"city":"","region":"","country":"Białoruś","localised_name":null,"is_group":false,"has_announcements":false},{"id":2204681,"name":"Zup. Punkt 849 Km","name_slug":"zup-punkt-849-km","latitude":49.5792023,"longitude":37.9438185,"hits":0,"ibnr":null,"city":"","region":"","country":"Ukraina","localised_name":null,"is_group":false,"has_announcements":false},{"id":2210901,"name":"Platforma 138 Km","name_slug":"platforma-138-km","latitude":null,"longitude":null,"hits":0,"ibnr":null,"city":"","region":"","country":"Ukraina","localised_name":null,"is_group":false,"has_announcements":false},{"id":2201280,"name":"Darnytsia Depo","name_slug":"darnytsia-depo","latitude":50.4384993,"longitude":30.6755078,"hits":0,"ibnr":null,"city":"","region":"","country":"Ukraina","localised_name":null,"is_group":false,"has_announcements":false},{"id":2210276,"name":"Tashchenak","name_slug":"tashchenak","latitude":46.7969172,"longitude":35.2521906,"hits":0,"ibnr":null,"city":"","region":"","country":"Ukraina","localised_name":null,"is_group":false,"has_announcements":false},{"id":79483,"name":"Dziadówki","name_slug":"dziadowki","latitude":50.3988711269254,"longitude":20.0084141041512,"hits":2058,"ibnr":3069,"city":"Pstroszyce Pierwsze","region":"małopolskie","country":"Polska","localised_name":null,"is_group":false,"has_announcements":false},{"id":2204890,"name":"Okhtyrka","name_slug":"okhtyrka","latitude":50.31695,"longitude":34.9177559,"hits":0,"ibnr":null,"city":"","region":"","country":"Ukraina","localised_name":null,"is_group":false,"has_announcements":false},{"id":81661,"name":"Moszczenica Małopolska","name_slug":"moszczenica-malopolska","latitude":49.6965943,"longitude":21.1236886,"hits":1494,"ibnr":3182,"city":"Moszczenica","region":"małopolskie","country":"Polska","localised_name":null,"is_group":false,"has_announcements":false},{"id":900106,"name":"Eberswalde Hbf","name_slug":"eberswalde-hbf","latitude":52.834021,"longitude":13.797062,"hits":1389,"ibnr":9939,"city":"","region":"","country":"Niemcy","localised_name":null,"is_group":false,"has_announcements":false},{"id":2208640,"name":"Uman","name_slug":"uman","latitude":48.7327808,"longitude":30.2043543,"hits":0,"ibnr":null,"city":"","region":"","country":"Ukraina","localised_name":null,"is_group":false,"has_announcements":false},{"id":16717,"name":"Bydgoszcz Wschód","name_slug":"bydgoszcz-wschod","latitude":53.12805981,"longitude":18.08972367,"hits":4037,"ibnr":501,"city":"Bydgoszcz","region":"kujawsko-pomorskie","country":"Polska","localised_name":null,"is_group":false,"has_announcements":false},{"id":2100606,"name":"Konstantinov Dvor","name_slug":"konstantinov-dvor","latitude":55.1307963,"longitude":27.4991071,"hits":446,"ibnr":null,"city":"","region":"","country":"Białoruś","localised_name":null,"is_group":false,"has_announcements":false},{"id":2201123,"name":"Zahaltsi","name_slug":"zahaltsi","latitude":50.6565161,"longitude":29.7953289,"hits":0,"ibnr":null,"city":"","region":"","country":"Ukraina","localised_name":null,"is_group":false,"has_announcements":false},{"id":9720,"name":"Górowo","name_slug":"gorowo","latitude":53.9613410374079,"longitude":20.9853666051606,"hits":2352,"ibnr":5201,"city":"Edwardowo","region":"warmińsko-mazurskie","country":"Polska","localised_name":null,"is_group":false,"has_announcements":false},{"id":2204818,"name":"Zup. Punkt 272 Km","name_slug":"zup-punkt-272-km","latitude":null,"longitude":null,"hits":0,"ibnr":null,"city":"","region":"","country":"Ukraina","localised_name":null,"is_group":false,"has_announcements":false},{"id":2200358,"name":"Varyvodky","name_slug":"varyvodky","latitude":49.9874817,"longitude":26.3295642,"hits":0,"ibnr":null,"city":"","region":"","country":"Ukraina","localised_name":null,"is_group":false,"has_announcements":false},{"id":54973,"name":"Mościsko Dzierżoniowskie","name_slug":"moscisko-dzierzoniowskie","latitude":50.77212,"longitude":16.58025,"hits":3058,"ibnr":6280,"city":"Mościsko","region":"dolnośląskie","country":"Polska","localised_name":null,"is_group":false,"has_announcements":false},{"id":242953,"name":"Zagrody Kościół","name_slug":"zagrody-kosciol","latitude":51.07854,"longitude":23.19044,"hits":2021,"ibnr":3444,"city":"Zagrody","region":"lubelskie","country":"Polska","localised_name":null,"is_group":false,"has_announcements":false},{"id":52035,"name":"Jagodzin","name_slug":"jagodzin","latitude":51.3548230207744,"longitude":15.1706804082575,"hits":2267,"ibnr":6153,"city":"Jagodzin","region":"dolnośląskie","country":"Polska","localised_name":null,"is_group":false,"has_announcements":false},{"id":21857,"name":"Smolniki","name_slug":"smolniki","latitude":53.5392884974048,"longitude":19.6052551849858,"hits":1715,"ibnr":5574,"city":"Smolniki","region":"warmińsko-mazurskie","country":"Polska","localised_name":null,"is_group":false,"has_announcements":false},{"id":2100317,"name":"Yarevo","name_slug":"yarevo","latitude":55.1422,"longitude":26.6531001,"hits":0,"ibnr":null,"city":"","region":"","country":"Białoruś","localised_name":null,"is_group":false,"has_announcements":false},{"id":280256,"name":"Rzeszów Pobitno","name_slug":"rzeszow-pobitno","latitude":50.052488,"longitude":22.033159,"hits":823,"ibnr":6627,"city":"","region":"","country":"Polska","localised_name":null,"is_group":false,"has_announcements":false},{"id":2100460,"name":"Zyabi","name_slug":"zyabi","latitude":54.7941177,"longitude":29.2632451,"hits":0,"ibnr":null,"city":"","region":"","country":"Białoruś","localised_name":null,"is_group":false,"has_announcements":false},{"id":2218177,"name":"Krymne","name_slug":"krymne","latitude":51.5343231,"longitude":24.3768983,"hits":0,"ibnr":null,"city":"","region":"","country":"Ukraina","localised_name":null,"is_group":false,"has_announcements":false},{"id":2214068,"name":"Siversk","name_slug":"siversk","latitude":48.870194,"longitude":38.0931482,"hits":0,"ibnr":null,"city":"","region":"","country":"Ukraina","localised_name":null,"is_group":false,"has_announcements":false},{"id":901050,"name":"Piotrowice PKS","name_slug":"piotrowice-pks","latitude":50.213795,"longitude":18.971223,"hits":1103,"ibnr":10196,"city":"","region":"","country":"Polska","localised_name":null,"is_group":false,"has_announcements":false},{"id":6775,"name":"Jastarnia","name_slug":"jastarnia","latitude":54.70139327,"longitude":18.67972373,"hits":4099,"ibnr":59,"city":"Jastarnia","region":"pomorskie","country":"Polska","localised_name":null,"is_group":false,"has_announcements":false},{"id":2204556,"name":"Halka","name_slug":"halka","latitude":50.7063106,"longitude":32.1907099,"hits":0,"ibnr":null,"city":"","region":"","country":"Ukraina","localised_name":null,"is_group":false,"has_announcements":false},{"id":2204940,"name":"Kupiansk-Sort","name_slug":"kupiansk-sort","latitude":49.7055574,"longitude":37.6027997,"hits":0,"ibnr":null,"city":"","region":"","country":"Ukraina","localised_name":null,"is_group":false,"has_announcements":false},{"id":2204570,"name":"Myrhorod","name_slug":"myrhorod","latitude":49.949236,"longitude":33.6299933,"hits":0,"ibnr":null,"city":"","region":"","country":"Ukraina","localised_name":null,"is_group":false,"has_announcements":false},{"id":44784,"name":"Książno","name_slug":"ksiazno","latitude":52.24604,"longitude":17.49371,"hits":1498,"ibnr":7230,"city":"Książno","region":"wielkopolskie","country":"Polska","localised_name":null,"is_group":false,"has_announcements":false},{"id":263452,"name":"Warszawa Targówek","name_slug":"warszawa-targowek","latitude":52.26378,"longitude":21.05374,"hits":2014,"ibnr":6581,"city":"","region":"","country":"Polska","localised_name":null,"is_group":false,"has_announcements":false},{"id":901439,"name":"Anielin PKS","name_slug":"anielin-pks","latitude":53.1291,"longitude":17.4861001,"hits":702,"ibnr":10390,"city":"","region":"","country":"Polska","localised_name":null,"is_group":false,"has_announcements":false},{"id":2205645,"name":"Hnylytsia","name_slug":"hnylytsia","latitude":50.0861379,"longitude":37.4062161,"hits":0,"ibnr":null,"city":"","region":"","country":"Ukraina","localised_name":null,"is_group":false,"has_announcements":false},{"id":40832,"name":"Międzyrzec Podlaski","name_slug":"miedzyrzec-podlaski","latitude":51.9758375,"longitude":22.78722405,"hits":3954,"ibnr":125,"city":"Międzyrzec Podlaski","region":"lubelskie","country":"Polska","localised_name":null,"is_group":false,"has_announcements":false},{"id":2218149,"name":"Derenivka","name_slug":"derenivka","latitude":49.2397472,"longitude":25.7710158,"hits":0,"ibnr":null,"city":"","region":"","country":"Ukraina","localised_name":null,"is_group":false,"has_announcements":false},{"id":83550,"name":"Krosno Turaszówka","name_slug":"krosno-turaszowka","latitude":49.7095929538679,"longitude":21.6963078960104,"hits":1808,"ibnr":3142,"city":"Krosno","region":"podkarpackie","country":"Polska","localised_name":null,"is_group":false,"has_announcements":false},{"id":40873,"name":"Misie","name_slug":"misie","latitude":51.9608978794078,"longitude":22.6952717625862,"hits":2642,"ibnr":1283,"city":"Misie","region":"lubelskie","country":"Polska","localised_name":null,"is_group":false,"has_announcements":false},{"id":53132,"name":"Jaśkowice Legnickie","name_slug":"jaskowice-legnickie","latitude":51.2226771,"longitude":16.318148,"hits":3277,"ibnr":6160,"city":"Jaśkowice Legnickie","region":"dolnośląskie","country":"Polska","localised_name":null,"is_group":false,"has_announcements":false},{"id":2204483,"name":"Razzhyvevka","name_slug":"razzhyvevka","latitude":49.3798045,"longitude":35.5540207,"hits":14,"ibnr":null,"city":"","region":"","country":"Ukraina","localised_name":null,"is_group":false,"has_announcements":false},{"id":2210811,"name":"Radushna","name_slug":"radushna","latitude":47.8240332,"longitude":33.5108646,"hits":0,"ibnr":null,"city":"","region":"","country":"Ukraina","localised_name":null,"is_group":false,"has_announcements":false},{"id":2100002,"name":"Institut kultury","name_slug":"institut-kultury","latitude":53.886008,"longitude":27.540818,"hits":354,"ibnr":null,"city":"","region":"","country":"Białoruś","localised_name":null,"is_group":false,"has_announcements":false},{"id":80440,"name":"Wieliczka Park","name_slug":"wieliczka-park","latitude":49.98908,"longitude":20.04936,"hits":3108,"ibnr":3323,"city":"Wieliczka","region":"małopolskie","country":"Polska","localised_name":null,"is_group":false,"has_announcements":false},{"id":400000,"name":"Pleszew Miasto","name_slug":"pleszew-miasto","latitude":51.893188,"longitude":17.732459,"hits":1650,"ibnr":null,"city":"Kowalew","region":"wielkopolskie","country":"Polska","localised_name":null,"is_group":false,"has_announcements":false},{"id":2208444,"name":"Liubashivka","name_slug":"liubashivka","latitude":47.8467753,"longitude":30.267114,"hits":0,"ibnr":null,"city":"","region":"","country":"Ukraina","localised_name":null,"is_group":false,"has_announcements":false},{"id":2214248,"name":"Kvashyne","name_slug":"kvashyne","latitude":47.7450517,"longitude":38.5854336,"hits":0,"ibnr":null,"city":"","region":"","country":"Ukraina","localised_name":null,"is_group":false,"has_announcements":false},{"id":2100073,"name":"Yelizovo","name_slug":"yelizovo","latitude":53.4005672,"longitude":28.9917414,"hits":85,"ibnr":null,"city":"","region":"","country":"Białoruś","localised_name":null,"is_group":false,"has_announcements":false},{"id":2204479,"name":"Shyrokyi","name_slug":"shyrokyi","latitude":49.5613818,"longitude":35.6211393,"hits":0,"ibnr":null,"city":"","region":"","country":"Ukraina","localised_name":null,"is_group":false,"has_announcements":false},{"id":2100244,"name":"Farinovo","name_slug":"farinovo","latitude":55.4240708,"longitude":28.5817776,"hits":0,"ibnr":null,"city":"","region":"","country":"Białoruś","localised_name":null,"is_group":false,"has_announcements":false},{"id":262771,"name":"Parzniew","name_slug":"parzniew","latitude":52.1564582,"longitude":20.7631405,"hits":3019,"ibnr":5469,"city":"Parzniew","region":"mazowieckie","country":"Polska","localised_name":null,"is_group":false,"has_announcements":false},{"id":2201215,"name":"Troieshchyna","name_slug":"troieshchyna","latitude":50.479401,"longitude":30.5808232,"hits":0,"ibnr":null,"city":"","region":"","country":"Ukraina","localised_name":null,"is_group":false,"has_announcements":false},{"id":13128,"name":"Kowalów","name_slug":"kowalow","latitude":52.3984294218687,"longitude":14.7586785749781,"hits":2462,"ibnr":8182,"city":"Kowalów","region":"lubuskie","country":"Polska","localised_name":null,"is_group":false,"has_announcements":false},{"id":2100014,"name":"Tolochin","name_slug":"tolochin","latitude":54.4026414,"longitude":29.753093,"hits":0,"ibnr":null,"city":"","region":"","country":"Białoruś","localised_name":null,"is_group":false,"has_announcements":false},{"id":32334,"name":"Raciborów Kutnowski","name_slug":"raciborow-kutnowski","latitude":52.280382,"longitude":19.341614,"hits":1767,"ibnr":1379,"city":"Raciborów","region":"łódzkie","country":"Polska","localised_name":null,"is_group":false,"has_announcements":false},{"id":24273,"name":"Białystok Fabryczny","name_slug":"bialystok-fabryczny","latitude":53.1397913357477,"longitude":23.1857233218572,"hits":1709,"ibnr":1045,"city":"Białystok","region":"podlaskie","country":"Polska","localised_name":null,"is_group":false,"has_announcements":false},{"id":76265,"name":"Andrychów Górnica","name_slug":"andrychow-gornica","latitude":49.8584043879251,"longitude":19.3242040131536,"hits":3142,"ibnr":4022,"city":"Andrychów","region":"małopolskie","country":"Polska","localised_name":null,"is_group":false,"has_announcements":false},{"id":2210791,"name":"Zaitseve","name_slug":"zaitseve","latitude":48.424882,"longitude":35.6805772,"hits":0,"ibnr":null,"city":"","region":"","country":"Ukraina","localised_name":null,"is_group":false,"has_announcements":false},{"id":17368,"name":"Laski Tucholskie","name_slug":"laski-tucholskie","latitude":53.6654574941381,"longitude":18.2088951321693,"hits":1793,"ibnr":5323,"city":"Sarnia Góra","region":"kujawsko-pomorskie","country":"Polska","localised_name":null,"is_group":false,"has_announcements":false},{"id":2204561,"name":"Pyriatyn","name_slug":"pyriatyn","latitude":50.2382458,"longitude":32.505965,"hits":0,"ibnr":null,"city":"","region":"","country":"Ukraina","localised_name":null,"is_group":false,"has_announcements":false},{"id":2218241,"name":"Vyshhorodok","name_slug":"vyshhorodok","latitude":49.7915623,"longitude":25.9255598,"hits":0,"ibnr":null,"city":"","region":"","country":"Ukraina","localised_name":null,"is_group":false,"has_announcements":false},{"id":2208625,"name":"Kamennyi Most","name_slug":"kamennyi-most","latitude":47.9122154,"longitude":30.7853756,"hits":0,"ibnr":null,"city":"","region":"","country":"Ukraina","localised_name":null,"is_group":false,"has_announcements":false},{"id":2200126,"name":"Kurne","name_slug":"kurne","latitude":50.4316892,"longitude":28.1166569,"hits":0,"ibnr":null,"city":"","region":"","country":"Ukraina","localised_name":null,"is_group":false,"has_announcements":false},{"id":2210312,"name":"Zup. Punkt 42 Km","name_slug":"zup-punkt-42-km","latitude":47.6408449,"longitude":33.7209322,"hits":0,"ibnr":null,"city":"","region":"","country":"Ukraina","localised_name":null,"is_group":false,"has_announcements":false},{"id":2200177,"name":"Myropil","name_slug":"myropil","latitude":50.1001112,"longitude":27.6685473,"hits":0,"ibnr":null,"city":"","region":"","country":"Ukraina","localised_name":null,"is_group":false,"has_announcements":false},{"id":2100289,"name":"Luzhesno","name_slug":"luzhesno","latitude":55.2553472,"longitude":30.1123537,"hits":0,"ibnr":null,"city":"","region":"","country":"Białoruś","localised_name":null,"is_group":false,"has_announcements":false},{"id":2101043,"name":"Novaya Zhizn","name_slug":"novaya-zhizn","latitude":54.3063599,"longitude":29.1308531,"hits":0,"ibnr":null,"city":"","region":"","country":"Białoruś","localised_name":null,"is_group":false,"has_announcements":false},{"id":2100914,"name":"Sad","name_slug":"sad","latitude":54.98772,"longitude":26.1648212,"hits":412,"ibnr":null,"city":"","region":"","country":"Białoruś","localised_name":null,"is_group":false,"has_announcements":false},{"id":901923,"name":"Ciosny PKS","name_slug":"ciosny-pks","latitude":null,"longitude":null,"hits":351,"ibnr":10522,"city":"","region":"","country":"Polska","localised_name":null,"is_group":false,"has_announcements":false},{"id":3046,"name":"Przeradz","name_slug":"przeradz","latitude":53.7707554025316,"longitude":16.5371590516595,"hits":2049,"ibnr":8296,"city":"Nowy Chwalim","region":"zachodniopomorskie","country":"Polska","localised_name":null,"is_group":false,"has_announcements":false},{"id":2210971,"name":"Hreblia","name_slug":"hreblia","latitude":48.5396695,"longitude":34.5366486,"hits":0,"ibnr":null,"city":"","region":"","country":"Ukraina","localised_name":null,"is_group":false,"has_announcements":false},{"id":900945,"name":"Julianów PKS","name_slug":"julianow-pks","latitude":52.0954,"longitude":21.05247,"hits":944,"ibnr":10155,"city":"","region":"","country":"Polska","localised_name":null,"is_group":false,"has_announcements":false},{"id":39792,"name":"Kotuń","name_slug":"kotun","latitude":52.1771757,"longitude":22.0676779,"hits":3604,"ibnr":1214,"city":"Kotuń","region":"mazowieckie","country":"Polska","localised_name":null,"is_group":false,"has_announcements":false},{"id":20966,"name":"Boguszewo","name_slug":"boguszewo","latitude":53.42198,"longitude":19.00084,"hits":2738,"ibnr":5045,"city":"Boguszewo","region":"kujawsko-pomorskie","country":"Polska","localised_name":null,"is_group":false,"has_announcements":false},{"id":2100852,"name":"Fomino","name_slug":"fomino","latitude":55.449785,"longitude":28.9436801,"hits":0,"ibnr":null,"city":"","region":"","country":"Białoruś","localised_name":null,"is_group":false,"has_announcements":false},{"id":77248,"name":"Dankowice","name_slug":"dankowice-bf018c7c-3cac-46d2-a6ad-952557cc8136","latitude":49.9373395570623,"longitude":19.0826553408042,"hits":628,"ibnr":4088,"city":"","region":"","country":"Polska","localised_name":null,"is_group":false,"has_announcements":false},{"id":2218310,"name":"Domanyntsi","name_slug":"domanyntsi","latitude":48.6375841,"longitude":22.3358478,"hits":0,"ibnr":null,"city":"","region":"","country":"Ukraina","localised_name":null,"is_group":false,"has_announcements":false},{"id":50500,"name":"Lublin Główny","name_slug":"lublin-glowny","latitude":51.23167078,"longitude":22.56916847,"hits":4315,"ibnr":103,"city":"Lublin","region":"lubelskie","country":"Polska","localised_name":null,"is_group":false,"has_announcements":false},{"id":2218329,"name":"Platforma 128 Km","name_slug":"platforma-128-km-8b76512e-e25f-441d-ad6e-f946e10bb915","latitude":50.4851237,"longitude":26.0661846,"hits":0,"ibnr":null,"city":"","region":"","country":"Ukraina","localised_name":null,"is_group":false,"has_announcements":false},{"id":2200936,"name":"Semenivka","name_slug":"semenivka","latitude":49.035953,"longitude":34.642325,"hits":0,"ibnr":null,"city":"","region":"","country":"Ukraina","localised_name":null,"is_group":false,"has_announcements":false},{"id":69203,"name":"Żory","name_slug":"zory","latitude":50.05194845,"longitude":18.70416817,"hits":3996,"ibnr":719,"city":"Żory","region":"śląskie","country":"Polska","localised_name":null,"is_group":false,"has_announcements":false},{"id":2201049,"name":"Kryvchunka","name_slug":"kryvchunka","latitude":49.2257983,"longitude":29.9524075,"hits":0,"ibnr":null,"city":"","region":"","country":"Ukraina","localised_name":null,"is_group":false,"has_announcements":false},{"id":2100042,"name":"Zyabki","name_slug":"zyabki","latitude":55.2570994,"longitude":28.1746354,"hits":0,"ibnr":null,"city":"","region":"","country":"Białoruś","localised_name":null,"is_group":false,"has_announcements":false},{"id":2101036,"name":"Nartsizovo","name_slug":"nartsizovo","latitude":null,"longitude":null,"hits":0,"ibnr":null,"city":"","region":"","country":"Białoruś","localised_name":null,"is_group":false,"has_announcements":false},{"id":51227,"name":"Tarzymiechy","name_slug":"tarzymiechy","latitude":50.8494267916641,"longitude":23.1232744569952,"hits":2096,"ibnr":2264,"city":"Tarzymiechy Pierwsze","region":"lubelskie","country":"Polska","localised_name":null,"is_group":false,"has_announcements":false},{"id":2205627,"name":"Zup. Punkt 79 Km","name_slug":"zup-punkt-79-km","latitude":null,"longitude":null,"hits":0,"ibnr":null,"city":"","region":"","country":"Ukraina","localised_name":null,"is_group":false,"has_announcements":false},{"id":2200145,"name":"Sudylkiv","name_slug":"sudylkiv","latitude":50.1799836,"longitude":27.1321591,"hits":0,"ibnr":null,"city":"","region":"","country":"Ukraina","localised_name":null,"is_group":false,"has_announcements":false},{"id":2214210,"name":"Debaltseve","name_slug":"debaltseve","latitude":48.3368896,"longitude":38.4042083,"hits":0,"ibnr":null,"city":"","region":"","country":"Ukraina","localised_name":null,"is_group":false,"has_announcements":false},{"id":2204643,"name":"Zp 196 Km","name_slug":"zp-196-km","latitude":49.8588881,"longitude":33.1899024,"hits":0,"ibnr":null,"city":"","region":"","country":"Ukraina","localised_name":null,"is_group":false,"has_announcements":false},{"id":2100303,"name":"Orsha-Zapadnaya","name_slug":"orsha-zapadnaya","latitude":54.5042921,"longitude":30.3750801,"hits":0,"ibnr":null,"city":"","region":"","country":"Białoruś","localised_name":null,"is_group":false,"has_announcements":false},{"id":2100475,"name":"Klypovshchina","name_slug":"klypovshchina","latitude":53.6430483,"longitude":27.0968735,"hits":0,"ibnr":null,"city":"","region":"","country":"Białoruś","localised_name":null,"is_group":false,"has_announcements":false},{"id":178685,"name":"Spała","name_slug":"spala","latitude":51.54272779999999,"longitude":20.1460625,"hits":2711,"ibnr":5572,"city":"Spała","region":"łódzkie","country":"Polska","localised_name":null,"is_group":false,"has_announcements":false},{"id":58875,"name":"Wrocław Zachodni","name_slug":"wroclaw-zachodni","latitude":51.0900820302845,"longitude":16.9486217867432,"hits":3794,"ibnr":6529,"city":"Wrocław","region":"dolnośląskie","country":"Polska","localised_name":null,"is_group":false,"has_announcements":false},{"id":2204816,"name":"Besidivshchyna","name_slug":"besidivshchyna","latitude":50.1084458,"longitude":32.5121544,"hits":0,"ibnr":null,"city":"","region":"","country":"Ukraina","localised_name":null,"is_group":false,"has_announcements":false},{"id":263501,"name":"Mokronos Górny","name_slug":"mokronos-gorny","latitude":51.078636,"longitude":16.908614,"hits":3946,"ibnr":7577,"city":"","region":"","country":"Polska","localised_name":null,"is_group":false,"has_announcements":false},{"id":79939,"name":"Kraków Zabłocie","name_slug":"krakow-zablocie","latitude":50.0478777986286,"longitude":19.95809436352,"hits":3855,"ibnr":3139,"city":"Kraków","region":"małopolskie","country":"Polska","localised_name":null,"is_group":false,"has_announcements":false},{"id":2214767,"name":"Uiut","name_slug":"uiut","latitude":40.7126452,"longitude":-74.00989799999999,"hits":0,"ibnr":null,"city":"","region":"","country":"Ukraina","localised_name":null,"is_group":false,"has_announcements":false},{"id":2210954,"name":"Platforma 292 Km","name_slug":"platforma-292-km","latitude":47.4697143,"longitude":36.3222368,"hits":0,"ibnr":null,"city":"","region":"","country":"Ukraina","localised_name":null,"is_group":false,"has_announcements":false},{"id":47878,"name":"Bobry","name_slug":"bobry","latitude":51.0285363568757,"longitude":19.4046802998135,"hits":2036,"ibnr":1054,"city":"Radomsko","region":"łódzkie","country":"Polska","localised_name":null,"is_group":false,"has_announcements":false},{"id":2218487,"name":"Rohatyn","name_slug":"rohatyn","latitude":49.3996667,"longitude":24.6211392,"hits":0,"ibnr":null,"city":"","region":"","country":"Ukraina","localised_name":null,"is_group":false,"has_announcements":false},{"id":2218133,"name":"Verkhni Hai","name_slug":"verkhni-hai","latitude":49.3011452,"longitude":23.6630045,"hits":0,"ibnr":null,"city":"","region":"","country":"Ukraina","localised_name":null,"is_group":false,"has_announcements":false},{"id":72066,"name":"Boronów","name_slug":"boronow","latitude":50.6657090502924,"longitude":18.9012382053878,"hits":2921,"ibnr":4045,"city":"Cielec","region":"śląskie","country":"Polska","localised_name":null,"is_group":false,"has_announcements":false},{"id":2100083,"name":"Rumino","name_slug":"rumino","latitude":54.4402331,"longitude":30.4601097,"hits":0,"ibnr":null,"city":"","region":"","country":"Białoruś","localised_name":null,"is_group":false,"has_announcements":false},{"id":47852,"name":"Gomunice","name_slug":"gomunice","latitude":51.1637003613926,"longitude":19.4868474564883,"hits":3361,"ibnr":1133,"city":"Gomunice","region":"łódzkie","country":"Polska","localised_name":null,"is_group":false,"has_announcements":false},{"id":2100535,"name":"Zherebkovichi","name_slug":"zherebkovichi","latitude":53.0788219,"longitude":26.4527381,"hits":0,"ibnr":null,"city":"","region":"","country":"Białoruś","localised_name":null,"is_group":false,"has_announcements":false},{"id":2204937,"name":"Priadkin","name_slug":"priadkin","latitude":null,"longitude":null,"hits":0,"ibnr":null,"city":"","region":"","country":"Ukraina","localised_name":null,"is_group":false,"has_announcements":false},{"id":2205620,"name":"Karachivka","name_slug":"karachivka","latitude":49.912748,"longitude":36.1929839,"hits":0,"ibnr":null,"city":"","region":"","country":"Ukraina","localised_name":null,"is_group":false,"has_announcements":false},{"id":13094,"name":"Laski Lubuskie","name_slug":"laski-lubuskie","latitude":52.4607231903062,"longitude":14.712614305978,"hits":2087,"ibnr":8195,"city":"Laski Lubuskie","region":"lubuskie","country":"Polska","localised_name":null,"is_group":false,"has_announcements":false},{"id":900578,"name":"Štrba","name_slug":"strba","latitude":49.083235,"longitude":20.066704,"hits":1196,"ibnr":null,"city":"","region":"","country":"Słowacja","localised_name":null,"is_group":false,"has_announcements":false},{"id":2201245,"name":"Parnykova","name_slug":"parnykova","latitude":50.5703995,"longitude":30.9024284,"hits":0,"ibnr":null,"city":"","region":"","country":"Ukraina","localised_name":null,"is_group":false,"has_announcements":false},{"id":17228,"name":"Twarda Góra","name_slug":"twarda-gora","latitude":53.6823374040417,"longitude":18.6716256370052,"hits":3255,"ibnr":5661,"city":"Rychława","region":"kujawsko-pomorskie","country":"Polska","localised_name":null,"is_group":false,"has_announcements":false},{"id":2204038,"name":"Ost.Punkt 23 Km","name_slug":"ost-punkt-23-km","latitude":null,"longitude":null,"hits":0,"ibnr":null,"city":"","region":"","country":"Ukraina","localised_name":null,"is_group":false,"has_announcements":false},{"id":2204807,"name":"Rubtsi","name_slug":"rubtsi","latitude":35.126037,"longitude":-118.408104,"hits":0,"ibnr":null,"city":"","region":"","country":"Ukraina","localised_name":null,"is_group":false,"has_announcements":false},{"id":2200360,"name":"Vydubychi-Trypilski","name_slug":"vydubychi-trypilski","latitude":50.4009811,"longitude":30.5571203,"hits":375,"ibnr":null,"city":"","region":"","country":"Ukraina","localised_name":null,"is_group":false,"has_announcements":false},{"id":2100017,"name":"Chashniki","name_slug":"chashniki","latitude":54.8341021,"longitude":29.1406989,"hits":0,"ibnr":null,"city":"","region":"","country":"Białoruś","localised_name":null,"is_group":false,"has_announcements":false},{"id":2200184,"name":"Kryvyn","name_slug":"kryvyn","latitude":50.3616282,"longitude":26.7002548,"hits":147,"ibnr":null,"city":"","region":"","country":"Ukraina","localised_name":null,"is_group":false,"has_announcements":false},{"id":2100720,"name":"Horoshki","name_slug":"horoshki","latitude":53.3278901,"longitude":25.6146871,"hits":0,"ibnr":null,"city":"","region":"","country":"Białoruś","localised_name":null,"is_group":false,"has_announcements":false},{"id":29645,"name":"Oborniki Wielkopolskie Miasto","name_slug":"oborniki-wielkopolskie-miasto","latitude":52.645282,"longitude":16.82166802,"hits":4050,"ibnr":7321,"city":"Oborniki","region":"wielkopolskie","country":"Polska","localised_name":null,"is_group":false,"has_announcements":false},{"id":2204563,"name":"Lazirky","name_slug":"lazirky","latitude":50.0955392,"longitude":32.643631,"hits":0,"ibnr":null,"city":"","region":"","country":"Ukraina","localised_name":null,"is_group":false,"has_announcements":false},{"id":2100188,"name":"Brest-Vostochny","name_slug":"brest-vostochny","latitude":52.1102695,"longitude":23.7272676,"hits":0,"ibnr":null,"city":"","region":"","country":"Białoruś","localised_name":null,"is_group":false,"has_announcements":false},{"id":29835,"name":"Poznań Karolin","name_slug":"poznan-karolin","latitude":52.43844499999999,"longitude":16.981528,"hits":3182,"ibnr":7392,"city":"Poznań","region":"wielkopolskie","country":"Polska","localised_name":null,"is_group":false,"has_announcements":false},{"id":2200338,"name":"Fosnia","name_slug":"fosnia","latitude":null,"longitude":null,"hits":0,"ibnr":null,"city":"","region":"","country":"Ukraina","localised_name":null,"is_group":false,"has_announcements":false},{"id":84756,"name":"Korzenica","name_slug":"korzenica","latitude":50.0555997345883,"longitude":22.9362523670732,"hits":1604,"ibnr":3121,"city":"Korzenica","region":"podkarpackie","country":"Polska","localised_name":null,"is_group":false,"has_announcements":false},{"id":901467,"name":"Lutosławice Szlacheckie  PKS","name_slug":"lutoslawice-szlacheckie-pks","latitude":51.5843772,"longitude":19.8113359,"hits":627,"ibnr":10421,"city":"","region":"","country":"Polska","localised_name":null,"is_group":false,"has_announcements":false},{"id":67967,"name":"Krzyżanowice","name_slug":"krzyzanowice","latitude":49.988721,"longitude":18.276407,"hits":3025,"ibnr":4186,"city":"Krzyżanowice","region":"śląskie","country":"Polska","localised_name":null,"is_group":false,"has_announcements":false},{"id":2210594,"name":"Platforma 23 Km","name_slug":"platforma-23-km","latitude":47.8610606,"longitude":35.1701815,"hits":0,"ibnr":null,"city":"","region":"","country":"Ukraina","localised_name":null,"is_group":false,"has_announcements":false},{"id":2100500,"name":"Medvedka","name_slug":"medvedka","latitude":55.1389698,"longitude":30.1592222,"hits":0,"ibnr":null,"city":"","region":"","country":"Białoruś","localised_name":null,"is_group":false,"has_announcements":false},{"id":2214269,"name":"Tavla","name_slug":"tavla","latitude":30.6034606,"longitude":-104.5184835,"hits":0,"ibnr":null,"city":"","region":"","country":"Ukraina","localised_name":null,"is_group":false,"has_announcements":false},{"id":44172,"name":"Włostowo","name_slug":"wlostowo","latitude":51.752942,"longitude":17.025406,"hits":2081,"ibnr":7542,"city":"Chwałkowo","region":"wielkopolskie","country":"Polska","localised_name":null,"is_group":false,"has_announcements":false},{"id":900873,"name":"Brzeźnio PKS","name_slug":"brzeznio-pks","latitude":51.3463066,"longitude":19.3745841,"hits":1236,"ibnr":10180,"city":"","region":"","country":"Polska","localised_name":null,"is_group":false,"has_announcements":false},{"id":75440,"name":"Myszków Światowit","name_slug":"myszkow-swiatowit","latitude":50.565654,"longitude":19.359381,"hits":3278,"ibnr":4231,"city":"Myszków","region":"śląskie","country":"Polska","localised_name":null,"is_group":false,"has_announcements":false},{"id":2210745,"name":"Ostriakove","name_slug":"ostriakove","latitude":45.116446,"longitude":34.0279981,"hits":0,"ibnr":null,"city":"","region":"","country":"Ukraina","localised_name":null,"is_group":false,"has_announcements":false},{"id":2208603,"name":"Peremoha","name_slug":"peremoha-25ce6796-c228-4610-bd59-67616712e3dc","latitude":47.3003053,"longitude":29.9238436,"hits":0,"ibnr":null,"city":"","region":"","country":"Ukraina","localised_name":null,"is_group":false,"has_announcements":false},{"id":46086,"name":"Sośnie Ostrowskie","name_slug":"sosnie-ostrowskie","latitude":51.471215,"longitude":17.639471,"hits":3119,"ibnr":7465,"city":"Sośnie","region":"wielkopolskie","country":"Polska","localised_name":null,"is_group":false,"has_announcements":false},{"id":2208615,"name":"Sukhyi Lyman","name_slug":"sukhyi-lyman","latitude":46.397866,"longitude":30.6405071,"hits":0,"ibnr":null,"city":"","region":"","country":"Ukraina","localised_name":null,"is_group":false,"has_announcements":false},{"id":2100550,"name":"Minoyty","name_slug":"minoyty","latitude":53.7936041,"longitude":25.3621532,"hits":0,"ibnr":null,"city":"","region":"","country":"Białoruś","localised_name":null,"is_group":false,"has_announcements":false},{"id":54981,"name":"Krzyżowa","name_slug":"krzyzowa","latitude":50.7937699131855,"longitude":16.5288154264849,"hits":2839,"ibnr":6221,"city":"Krzyżowa","region":"dolnośląskie","country":"Polska","localised_name":null,"is_group":false,"has_announcements":false},{"id":2214010,"name":"Yasynuvata Pas.","name_slug":"yasynuvata-pas","latitude":48.1217816,"longitude":37.8454052,"hits":0,"ibnr":null,"city":"","region":"","country":"Ukraina","localised_name":null,"is_group":false,"has_announcements":false},{"id":2208365,"name":"Stanislavchyk","name_slug":"stanislavchyk","latitude":null,"longitude":null,"hits":0,"ibnr":null,"city":"","region":"","country":"Ukraina","localised_name":null,"is_group":false,"has_announcements":false},{"id":35261,"name":"Podkowa Leśna Zachodnia","name_slug":"podkowa-lesna-zachodnia","latitude":52.1218212,"longitude":20.7092181,"hits":1716,"ibnr":null,"city":"Owczarnia","region":"mazowieckie","country":"Polska","localised_name":null,"is_group":false,"has_announcements":false},{"id":2214236,"name":"Shchebenka","name_slug":"shchebenka","latitude":48.1941676,"longitude":38.1401893,"hits":0,"ibnr":null,"city":"","region":"","country":"Ukraina","localised_name":null,"is_group":false,"has_announcements":false},{"id":178345,"name":"Szklarska Poręba Huta","name_slug":"szklarska-poreba-huta","latitude":50.826775,"longitude":15.497113,"hits":2402,"ibnr":6447,"city":"Szklarska Poręba","region":"dolnośląskie","country":"Polska","localised_name":null,"is_group":false,"has_announcements":false},{"id":2218346,"name":"Snovydovychi","name_slug":"snovydovychi","latitude":51.29697119999999,"longitude":27.3946279,"hits":0,"ibnr":null,"city":"","region":"","country":"Ukraina","localised_name":null,"is_group":false,"has_announcements":false},{"id":66142,"name":"Werbkowice","name_slug":"werbkowice","latitude":50.74639296,"longitude":23.76722412,"hits":2459,"ibnr":2278,"city":"Werbkowice","region":"lubelskie","country":"Polska","localised_name":null,"is_group":false,"has_announcements":false},{"id":2218833,"name":"Liublynets-Volynskyi","name_slug":"liublynets-volynskyi","latitude":51.1837385,"longitude":24.624548,"hits":0,"ibnr":null,"city":"","region":"","country":"Ukraina","localised_name":null,"is_group":false,"has_announcements":false},{"id":2208109,"name":"Sosnivka","name_slug":"sosnivka-a4afe365-c97e-4cec-9ffb-2571e5e890a5","latitude":48.9124171,"longitude":32.3385557,"hits":0,"ibnr":null,"city":"","region":"","country":"Ukraina","localised_name":null,"is_group":false,"has_announcements":false},{"id":2201189,"name":"Babakivka","name_slug":"babakivka","latitude":51.1737631,"longitude":34.134833,"hits":0,"ibnr":null,"city":"","region":"","country":"Ukraina","localised_name":null,"is_group":false,"has_announcements":false},{"id":2200726,"name":"Lisnytstvo","name_slug":"lisnytstvo","latitude":50.4223676,"longitude":30.7228769,"hits":0,"ibnr":null,"city":"","region":"","country":"Ukraina","localised_name":null,"is_group":false,"has_announcements":false},{"id":2208411,"name":"Sakharna","name_slug":"sakharna","latitude":48.643897,"longitude":32.6253324,"hits":0,"ibnr":null,"city":"","region":"","country":"Ukraina","localised_name":null,"is_group":false,"has_announcements":false},{"id":2204015,"name":"Losieve-2","name_slug":"losieve-2","latitude":49.9462454,"longitude":36.3973991,"hits":0,"ibnr":null,"city":"","region":"","country":"Ukraina","localised_name":null,"is_group":false,"has_announcements":false},{"id":2100037,"name":"Shumilino","name_slug":"shumilino","latitude":55.3035656,"longitude":29.618541,"hits":0,"ibnr":null,"city":"","region":"","country":"Białoruś","localised_name":null,"is_group":false,"has_announcements":false},{"id":242218,"name":"Kotowo","name_slug":"kotowo","latitude":52.228167,"longitude":16.483833,"hits":2703,"ibnr":7156,"city":"Kotowo","region":"wielkopolskie","country":"Polska","localised_name":null,"is_group":false,"has_announcements":false},{"id":236483,"name":"Loecknitz","name_slug":"loecknitz","latitude":53.455833,"longitude":14.215833,"hits":1798,"ibnr":9901,"city":"","region":"","country":"Polska","localised_name":null,"is_group":false,"has_announcements":false},{"id":54858,"name":"Szczepanów","name_slug":"szczepanow","latitude":50.0053451,"longitude":20.6589782,"hits":1932,"ibnr":6445,"city":"","region":"","country":"Polska","localised_name":null,"is_group":false,"has_announcements":false},{"id":262206,"name":"Radziszów Centrum","name_slug":"radziszow-centrum","latitude":49.935854,"longitude":19.807811,"hits":1901,"ibnr":7581,"city":"","region":"","country":"Polska","localised_name":null,"is_group":false,"has_announcements":false},{"id":2210177,"name":"Platforma 125 Km","name_slug":"platforma-125-km","latitude":48.538853,"longitude":34.2823067,"hits":0,"ibnr":null,"city":"","region":"","country":"Ukraina","localised_name":null,"is_group":false,"has_announcements":false},{"id":28472,"name":"Swarzędz","name_slug":"swarzedz","latitude":52.40389308,"longitude":17.07611248,"hits":4076,"ibnr":521,"city":"Swarzędz","region":"wielkopolskie","country":"Polska","localised_name":null,"is_group":false,"has_announcements":false},{"id":2204745,"name":"Sosnivka","name_slug":"sosnivka","latitude":50.2487302,"longitude":35.9828289,"hits":0,"ibnr":null,"city":"","region":"","country":"Ukraina","localised_name":null,"is_group":false,"has_announcements":false},{"id":52902,"name":"Miłkowice","name_slug":"milkowice","latitude":51.2528006051612,"longitude":16.0608050091178,"hits":3708,"ibnr":6271,"city":"Miłkowice","region":"dolnośląskie","country":"Polska","localised_name":null,"is_group":false,"has_announcements":false},{"id":47324,"name":"Wągry","name_slug":"wagry","latitude":51.791100180307,"longitude":19.849280880003,"hits":2922,"ibnr":1515,"city":"Wągry","region":"łódzkie","country":"Polska","localised_name":null,"is_group":false,"has_announcements":false},{"id":2218312,"name":"Nevytske-Pidzamok","name_slug":"nevytske-pidzamok","latitude":48.6847657,"longitude":22.4020706,"hits":0,"ibnr":null,"city":"","region":"","country":"Ukraina","localised_name":null,"is_group":false,"has_announcements":false},{"id":1110462,"name":"Pągów","name_slug":"pagow","latitude":51.776794,"longitude":20.443335,"hits":591,"ibnr":10462,"city":"","region":"","country":"Polska","localised_name":null,"is_group":false,"has_announcements":false},{"id":901442,"name":"Fryszerka PKS","name_slug":"fryszerka-pks","latitude":51.546433,"longitude":20.0322568,"hits":676,"ibnr":10388,"city":"","region":"","country":"Polska","localised_name":null,"is_group":false,"has_announcements":false},{"id":77107,"name":"Oświęcim","name_slug":"oswiecim","latitude":50.0422859038146,"longitude":19.2007500481153,"hits":4182,"ibnr":146,"city":"Oświęcim","region":"małopolskie","country":"Polska","localised_name":null,"is_group":false,"has_announcements":false},{"id":50203,"name":"Bąkowiec","name_slug":"bakowiec","latitude":51.51744249999999,"longitude":21.7234053,"hits":2098,"ibnr":2025,"city":"Bąkowiec","region":"mazowieckie","country":"Polska","localised_name":null,"is_group":false,"has_announcements":false},{"id":2204509,"name":"Bakyrivka","name_slug":"bakyrivka","latitude":null,"longitude":null,"hits":0,"ibnr":null,"city":"","region":"","country":"Ukraina","localised_name":null,"is_group":false,"has_announcements":false},{"id":2214075,"name":"Maloilshivska","name_slug":"maloilshivska","latitude":48.942581,"longitude":38.408591,"hits":0,"ibnr":null,"city":"","region":"","country":"Ukraina","localised_name":null,"is_group":false,"has_announcements":false},{"id":2208007,"name":"Novyi Step","name_slug":"novyi-step","latitude":47.3018393,"longitude":31.4499175,"hits":0,"ibnr":null,"city":"","region":"","country":"Ukraina","localised_name":null,"is_group":false,"has_announcements":false},{"id":2204028,"name":"Sadove Tov Dnipro","name_slug":"sadove-tov-dnipro","latitude":49.0954544,"longitude":33.2485227,"hits":0,"ibnr":null,"city":"","region":"","country":"Ukraina","localised_name":null,"is_group":false,"has_announcements":false},{"id":2210265,"name":"Khorosheve","name_slug":"khorosheve","latitude":48.3567267,"longitude":35.3927323,"hits":0,"ibnr":null,"city":"","region":"","country":"Ukraina","localised_name":null,"is_group":false,"has_announcements":false},{"id":264718,"name":"Jedlina Zdrój Centrum","name_slug":"jedlina-zdroj-centrum","latitude":0.0,"longitude":0.0,"hits":839,"ibnr":6619,"city":"","region":"","country":"Polska","localised_name":null,"is_group":false,"has_announcements":false},{"id":29165,"name":"Podlesiec","name_slug":"podlesiec","latitude":52.9362705829318,"longitude":15.8778179295902,"hits":2148,"ibnr":8282,"city":"Podlesiec","region":"lubuskie","country":"Polska","localised_name":null,"is_group":false,"has_announcements":false},{"id":2204402,"name":"Snizhna","name_slug":"snizhna","latitude":49.7560825,"longitude":37.5381285,"hits":0,"ibnr":null,"city":"","region":"","country":"Ukraina","localised_name":null,"is_group":false,"has_announcements":false},{"id":2210122,"name":"Platforma 948 Km","name_slug":"platforma-948-km","latitude":48.7935188,"longitude":36.2678834,"hits":0,"ibnr":null,"city":"","region":"","country":"Ukraina","localised_name":null,"is_group":false,"has_announcements":false},{"id":9282,"name":"Dobre Miasto","name_slug":"dobre-miasto","latitude":53.984546843042,"longitude":20.3838923817348,"hits":2199,"ibnr":5113,"city":"Dobre Miasto","region":"warmińsko-mazurskie","country":"Polska","localised_name":null,"is_group":false,"has_announcements":false},{"id":2200131,"name":"Yaropovychi","name_slug":"yaropovychi","latitude":50.1246167,"longitude":29.2702017,"hits":0,"ibnr":null,"city":"","region":"","country":"Ukraina","localised_name":null,"is_group":false,"has_announcements":false},{"id":2208147,"name":"Platforma 230 Km","name_slug":"platforma-230-km","latitude":46.9231191,"longitude":32.0425468,"hits":0,"ibnr":null,"city":"","region":"","country":"Ukraina","localised_name":null,"is_group":false,"has_announcements":false},{"id":39008,"name":"Mińsk Mazowiecki","name_slug":"minsk-mazowiecki","latitude":52.17528196,"longitude":21.55583506,"hits":4183,"ibnr":429,"city":"Mińsk Mazowiecki","region":"mazowieckie","country":"Polska","localised_name":null,"is_group":false,"has_announcements":false},{"id":2210984,"name":"Obvidna","name_slug":"obvidna","latitude":48.4392577,"longitude":34.9628264,"hits":0,"ibnr":null,"city":"","region":"","country":"Ukraina","localised_name":null,"is_group":false,"has_announcements":false},{"id":4705,"name":"Słupsk","name_slug":"slupsk","latitude":54.46833769,"longitude":17.0183347,"hits":4284,"ibnr":188,"city":"Słupsk","region":"pomorskie","country":"Polska","localised_name":null,"is_group":false,"has_announcements":false},{"id":28555,"name":"Poznań Dębina","name_slug":"poznan-debina","latitude":52.3733673860582,"longitude":16.9097183716155,"hits":3450,"ibnr":7387,"city":"Poznań","region":"wielkopolskie","country":"Polska","localised_name":null,"is_group":false,"has_announcements":false},{"id":2200076,"name":"Sholomsk","name_slug":"sholomsk","latitude":51.2900644,"longitude":28.7352448,"hits":0,"ibnr":null,"city":"","region":"","country":"Ukraina","localised_name":null,"is_group":false,"has_announcements":false},{"id":2200064,"name":"Boryspil","name_slug":"boryspil","latitude":50.3770131,"longitude":30.9444711,"hits":0,"ibnr":null,"city":"","region":"","country":"Ukraina","localised_name":null,"is_group":false,"has_announcements":false},{"id":42127,"name":"Bytom Odrzański","name_slug":"bytom-odrzanski","latitude":51.72611526,"longitude":15.8233346,"hits":3728,"ibnr":7069,"city":"Bytom Odrzański","region":"lubuskie","country":"Polska","localised_name":null,"is_group":false,"has_announcements":false},{"id":2218879,"name":"Hrebeniv","name_slug":"hrebeniv","latitude":48.9777539,"longitude":23.4702653,"hits":0,"ibnr":null,"city":"","region":"","country":"Ukraina","localised_name":null,"is_group":false,"has_announcements":false},{"id":2210231,"name":"Platforma 1017 Km","name_slug":"platforma-1017-km","latitude":48.4086714,"longitude":35.6392331,"hits":0,"ibnr":null,"city":"","region":"","country":"Ukraina","localised_name":null,"is_group":false,"has_announcements":false},{"id":2214102,"name":"Zup. Punkt 470 Km","name_slug":"zup-punkt-470-km","latitude":48.6955475,"longitude":38.0290627,"hits":0,"ibnr":null,"city":"","region":"","country":"Ukraina","localised_name":null,"is_group":false,"has_announcements":false},{"id":2100138,"name":"Lakhva","name_slug":"lakhva","latitude":52.2231042,"longitude":27.0790237,"hits":0,"ibnr":null,"city":"","region":"","country":"Białoruś","localised_name":null,"is_group":false,"has_announcements":false},{"id":2100867,"name":"Moroski","name_slug":"moroski","latitude":54.3426077,"longitude":26.7073465,"hits":0,"ibnr":null,"city":"","region":"","country":"Białoruś","localised_name":null,"is_group":false,"has_announcements":false},{"id":76224,"name":"Kęty Podlesie","name_slug":"kety-podlesie","latitude":49.878337014335,"longitude":19.1966811047742,"hits":2861,"ibnr":4163,"city":"Kęty","region":"małopolskie","country":"Polska","localised_name":null,"is_group":false,"has_announcements":false},{"id":43281,"name":"Nowy Solec","name_slug":"nowy-solec","latitude":52.0330385628313,"longitude":16.1919683192073,"hits":2044,"ibnr":7316,"city":"Solec Nowy","region":"wielkopolskie","country":"Polska","localised_name":null,"is_group":false,"has_announcements":false},{"id":56689,"name":"Wójcice","name_slug":"wojcice","latitude":50.4685390041544,"longitude":17.2193800291771,"hits":1382,"ibnr":6508,"city":"Wójcice","region":"opolskie","country":"Polska","localised_name":null,"is_group":false,"has_announcements":false},{"id":2200182,"name":"Shepetivka-Podilska","name_slug":"shepetivka-podilska","latitude":50.1658539,"longitude":27.0767043,"hits":0,"ibnr":null,"city":"","region":"","country":"Ukraina","localised_name":null,"is_group":false,"has_announcements":false},{"id":68783,"name":"Nędza","name_slug":"nedza","latitude":50.1562403840156,"longitude":18.2916862596413,"hits":3334,"ibnr":4233,"city":"Orzeszków","region":"śląskie","country":"Polska","localised_name":null,"is_group":false,"has_announcements":false},{"id":14761,"name":"Tuczno Krajeńskie","name_slug":"tuczno-krajenskie","latitude":53.21917093,"longitude":16.17666797,"hits":3428,"ibnr":8414,"city":"Tuczno","region":"zachodniopomorskie","country":"Polska","localised_name":null,"is_group":false,"has_announcements":false},{"id":2210137,"name":"Platforma 65 Km","name_slug":"platforma-65-km","latitude":null,"longitude":null,"hits":0,"ibnr":null,"city":"","region":"","country":"Ukraina","localised_name":null,"is_group":false,"has_announcements":false},{"id":901145,"name":"Warta PKS","name_slug":"warta-pks","latitude":51.6030447,"longitude":18.7304488,"hits":1307,"ibnr":10176,"city":"","region":"","country":"Polska","localised_name":null,"is_group":false,"has_announcements":false},{"id":2218854,"name":"Kolodno","name_slug":"kolodno","latitude":50.0017469,"longitude":24.2751604,"hits":0,"ibnr":null,"city":"","region":"","country":"Ukraina","localised_name":null,"is_group":false,"has_announcements":false},{"id":2204156,"name":"Rohan","name_slug":"rohan","latitude":49.9020231,"longitude":36.4309472,"hits":0,"ibnr":null,"city":"","region":"","country":"Ukraina","localised_name":null,"is_group":false,"has_announcements":false},{"id":2208107,"name":"Zymenove","name_slug":"zymenove","latitude":47.054255,"longitude":30.15528,"hits":0,"ibnr":null,"city":"","region":"","country":"Ukraina","localised_name":null,"is_group":false,"has_announcements":false},{"id":11163,"name":"Morąg Kolonia","name_slug":"morag-kolonia","latitude":53.9100848679296,"longitude":19.9459201533938,"hits":2995,"ibnr":5394,"city":"Morąg","region":"warmińsko-mazurskie","country":"Polska","localised_name":null,"is_group":false,"has_announcements":false},{"id":2200382,"name":"Zhukivka","name_slug":"zhukivka","latitude":51.3554175,"longitude":31.6823696,"hits":0,"ibnr":null,"city":"","region":"","country":"Ukraina","localised_name":null,"is_group":false,"has_announcements":false},{"id":2200723,"name":"Kornyn","name_slug":"kornyn","latitude":50.041599,"longitude":29.518033,"hits":0,"ibnr":null,"city":"","region":"","country":"Ukraina","localised_name":null,"is_group":false,"has_announcements":false},{"id":2477,"name":"Recz Pomorski","name_slug":"recz-pomorski","latitude":53.2708376,"longitude":15.56277903,"hits":3173,"ibnr":8306,"city":"Recz","region":"zachodniopomorskie","country":"Polska","localised_name":null,"is_group":false,"has_announcements":false},{"id":2100469,"name":"Razlogi","name_slug":"razlogi","latitude":55.0861525,"longitude":26.4195465,"hits":0,"ibnr":null,"city":"","region":"","country":"Białoruś","localised_name":null,"is_group":false,"has_announcements":false},{"id":118273,"name":"Stare Berezowo","name_slug":"stare-berezowo","latitude":52.732222,"longitude":23.455556,"hits":1533,"ibnr":1429,"city":"Stare Berezowo","region":"podlaskie","country":"Polska","localised_name":null,"is_group":false,"has_announcements":false},{"id":32250,"name":"Kłodawa","name_slug":"klodawa","latitude":52.2274889622781,"longitude":18.8940649236998,"hits":3592,"ibnr":1200,"city":"Kłodawa","region":"wielkopolskie","country":"Polska","localised_name":null,"is_group":false,"has_announcements":false},{"id":42689,"name":"Przysieka Stara","name_slug":"przysieka-stara","latitude":52.0364081068434,"longitude":16.6037275442405,"hits":3270,"ibnr":7410,"city":"Widziszewo","region":"wielkopolskie","country":"Polska","localised_name":null,"is_group":false,"has_announcements":false},{"id":900771,"name":"Přelouč","name_slug":"prelouc","latitude":50.03972,"longitude":15.57388,"hits":1161,"ibnr":null,"city":"","region":"","country":"Czechy","localised_name":null,"is_group":false,"has_announcements":false},{"id":1000054,"name":"Seitschen","name_slug":"seitschen","latitude":51.153767,"longitude":14.325332,"hits":862,"ibnr":8012981,"city":"","region":"","country":"Niemcy","localised_name":null,"is_group":false,"has_announcements":false},{"id":2201250,"name":"Kamenetskyi Pereezd","name_slug":"kamenetskyi-pereezd","latitude":49.4167174,"longitude":26.9746497,"hits":0,"ibnr":null,"city":"","region":"","country":"Ukraina","localised_name":null,"is_group":false,"has_announcements":false},{"id":2200003,"name":"Kyiv-Volynskyi","name_slug":"kyiv-volynskyi","latitude":50.4120772,"longitude":30.4314658,"hits":0,"ibnr":null,"city":"","region":"","country":"Ukraina","localised_name":null,"is_group":false,"has_announcements":false},{"id":241560,"name":"Rogoźnica koło Rzeszowa","name_slug":"rogoznica-kolo-rzeszowa","latitude":50.1266725494848,"longitude":21.9669914245605,"hits":2741,"ibnr":3115,"city":"Wola Cicha","region":"podkarpackie","country":"Polska","localised_name":null,"is_group":false,"has_announcements":false},{"id":2200121,"name":"Ushytsia","name_slug":"ushytsia","latitude":48.5957752,"longitude":27.0816447,"hits":0,"ibnr":null,"city":"","region":"","country":"Ukraina","localised_name":null,"is_group":false,"has_announcements":false},{"id":2210273,"name":"Zup. Punkt 142 Km","name_slug":"zup-punkt-142-km","latitude":47.7833065,"longitude":34.8119267,"hits":0,"ibnr":null,"city":"","region":"","country":"Ukraina","localised_name":null,"is_group":false,"has_announcements":false},{"id":2201244,"name":"Velyka Zahorivka","name_slug":"velyka-zahorivka","latitude":51.11431,"longitude":32.5449201,"hits":76,"ibnr":null,"city":"","region":"","country":"Ukraina","localised_name":null,"is_group":false,"has_announcements":false},{"id":30940,"name":"Fałkowo","name_slug":"falkowo","latitude":52.4987921836082,"longitude":17.4241198710876,"hits":3480,"ibnr":7123,"city":"Fałkowo","region":"wielkopolskie","country":"Polska","localised_name":null,"is_group":false,"has_announcements":false},{"id":2219003,"name":"Zhuravno","name_slug":"zhuravno","latitude":49.3129623,"longitude":24.3759262,"hits":0,"ibnr":null,"city":"","region":"","country":"Ukraina","localised_name":null,"is_group":false,"has_announcements":false},{"id":2100343,"name":"Sokolka","name_slug":"sokolka-a7c53ad9-13ea-47d2-9bd9-b235b49f2d72","latitude":53.4036469,"longitude":23.5080979,"hits":596,"ibnr":null,"city":"","region":"","country":"Białoruś","localised_name":null,"is_group":false,"has_announcements":false},{"id":2100318,"name":"Machulishchi","name_slug":"machulishchi","latitude":53.7848141,"longitude":27.6049614,"hits":0,"ibnr":null,"city":"","region":"","country":"Białoruś","localised_name":null,"is_group":false,"has_announcements":false},{"id":2210007,"name":"Zup. Punkt 335 Km","name_slug":"zup-punkt-335-km","latitude":47.835125,"longitude":33.9478773,"hits":0,"ibnr":null,"city":"","region":"","country":"Ukraina","localised_name":null,"is_group":false,"has_announcements":false},{"id":24042,"name":"Białystok Starosielce","name_slug":"bialystok-starosielce","latitude":53.12167092,"longitude":23.08750185,"hits":3400,"ibnr":1047,"city":"Białystok","region":"podlaskie","country":"Polska","localised_name":null,"is_group":false,"has_announcements":false},{"id":2208606,"name":"Shkilna","name_slug":"shkilna","latitude":47.8707772,"longitude":29.4754875,"hits":0,"ibnr":null,"city":"","region":"","country":"Ukraina","localised_name":null,"is_group":false,"has_announcements":false},{"id":2100923,"name":"Zheleznitsa","name_slug":"zheleznitsa","latitude":53.2536231,"longitude":25.840993,"hits":0,"ibnr":null,"city":"","region":"","country":"Białoruś","localised_name":null,"is_group":false,"has_announcements":false},{"id":2100057,"name":"Volozhin","name_slug":"volozhin","latitude":54.2202217,"longitude":26.4488889,"hits":0,"ibnr":null,"city":"","region":"","country":"Białoruś","localised_name":null,"is_group":false,"has_announcements":false},{"id":2100345,"name":"Ivaki","name_slug":"ivaki","latitude":52.2644411,"longitude":31.3428942,"hits":0,"ibnr":null,"city":"","region":"","country":"Białoruś","localised_name":null,"is_group":false,"has_announcements":false},{"id":2204515,"name":"Hubarivka","name_slug":"hubarivka","latitude":50.1777083,"longitude":35.3748606,"hits":0,"ibnr":null,"city":"","region":"","country":"Ukraina","localised_name":null,"is_group":false,"has_announcements":false},{"id":5322,"name":"Wrzeście","name_slug":"wrzescie","latitude":54.6778306700276,"longitude":17.6681927146794,"hits":1573,"ibnr":5703,"city":"Komaszewo","region":"pomorskie","country":"Polska","localised_name":null,"is_group":false,"has_announcements":false},{"id":258734,"name":"Łopuchowo Osiedle","name_slug":"lopuchowo-osiedle","latitude":52.618716,"longitude":17.109169,"hits":2262,"ibnr":6257,"city":"Łopuchowo","region":"wielkopolskie","country":"Polska","localised_name":null,"is_group":false,"has_announcements":false},{"id":18242,"name":"Anieliny","name_slug":"anieliny","latitude":53.1290784658899,"longitude":17.4861001324494,"hits":2511,"ibnr":5022,"city":"Anieliny","region":"kujawsko-pomorskie","country":"Polska","localised_name":null,"is_group":false,"has_announcements":false},{"id":2100130,"name":"Kommunary","name_slug":"kommunary","latitude":53.3781283,"longitude":32.0596398,"hits":0,"ibnr":null,"city":"","region":"","country":"Białoruś","localised_name":null,"is_group":false,"has_announcements":false},{"id":901188,"name":"Zubki Duże PKS","name_slug":"zubki-duze-pks","latitude":51.7672141,"longitude":20.2476122,"hits":812,"ibnr":10329,"city":"","region":"","country":"Polska","localised_name":null,"is_group":false,"has_announcements":false},{"id":2218304,"name":"Rudka","name_slug":"rudka","latitude":48.626853,"longitude":25.6078434,"hits":0,"ibnr":null,"city":"","region":"","country":"Ukraina","localised_name":null,"is_group":false,"has_announcements":false},{"id":2100762,"name":"Minskoye More","name_slug":"minskoye-more","latitude":55.657189,"longitude":37.2941904,"hits":71,"ibnr":null,"city":"","region":"","country":"Białoruś","localised_name":null,"is_group":false,"has_announcements":false},{"id":901030,"name":"Ogrodzona PKS","name_slug":"ogrodzona-pks","latitude":51.6734535,"longitude":17.0330006,"hits":926,"ibnr":10030,"city":"","region":"","country":"Polska","localised_name":null,"is_group":false,"has_announcements":false},{"id":63883,"name":"Wolica","name_slug":"wolica","latitude":50.7533565989244,"longitude":20.4705765706372,"hits":3409,"ibnr":2293,"city":"Wolica","region":"świętokrzyskie","country":"Polska","localised_name":null,"is_group":false,"has_announcements":false},{"id":18432,"name":"Rynkowo Wiadukt","name_slug":"rynkowo-wiadukt","latitude":53.1506324971854,"longitude":18.0057283879542,"hits":2394,"ibnr":5549,"city":"Bydgoszcz","region":"kujawsko-pomorskie","country":"Polska","localised_name":null,"is_group":false,"has_announcements":false},{"id":58438,"name":"Pustków Żurawski","name_slug":"pustkow-zurawski","latitude":50.9543075,"longitude":16.8554744,"hits":1677,"ibnr":6377,"city":"","region":"","country":"Polska","localised_name":null,"is_group":false,"has_announcements":false},{"id":901035,"name":"Ostrów PKS","name_slug":"ostrow-pks","latitude":51.65044289999999,"longitude":17.8059435,"hits":1188,"ibnr":10246,"city":"","region":"","country":"Polska","localised_name":null,"is_group":false,"has_announcements":false},{"id":2204871,"name":"Zup. Punkt 829 Km","name_slug":"zup-punkt-829-km","latitude":null,"longitude":null,"hits":0,"ibnr":null,"city":"","region":"","country":"Ukraina","localised_name":null,"is_group":false,"has_announcements":false},{"id":901944,"name":"Sokolniki (P.S.Ł.) PKS","name_slug":"sokolniki-p-s-l-pks","latitude":null,"longitude":null,"hits":521,"ibnr":10519,"city":"","region":"","country":"Polska","localised_name":null,"is_group":false,"has_announcements":false},{"id":49148,"name":"Wola Lipieniecka","name_slug":"wola-lipieniecka","latitude":51.276832,"longitude":21.026403,"hits":2450,"ibnr":2291,"city":"Ruda Wielka","region":"mazowieckie","country":"Polska","localised_name":null,"is_group":false,"has_announcements":false},{"id":2100790,"name":"Honovo","name_slug":"honovo","latitude":53.7885536,"longitude":29.9777015,"hits":0,"ibnr":null,"city":"","region":"","country":"Białoruś","localised_name":null,"is_group":false,"has_announcements":false},{"id":2204473,"name":"Krasnopavlivka","name_slug":"krasnopavlivka","latitude":49.1399617,"longitude":36.3213909,"hits":0,"ibnr":null,"city":"","region":"","country":"Ukraina","localised_name":null,"is_group":false,"has_announcements":false},{"id":2200289,"name":"Nyvky","name_slug":"nyvky","latitude":51.3437463,"longitude":29.1291259,"hits":0,"ibnr":null,"city":"","region":"","country":"Ukraina","localised_name":null,"is_group":false,"has_announcements":false},{"id":2218046,"name":"Liubytiv","name_slug":"liubytiv","latitude":51.16043999999999,"longitude":24.8275549,"hits":0,"ibnr":null,"city":"","region":"","country":"Ukraina","localised_name":null,"is_group":false,"has_announcements":false},{"id":2204030,"name":"Osynivka","name_slug":"osynivka","latitude":47.33921549999999,"longitude":30.22364349999999,"hits":0,"ibnr":null,"city":"","region":"","country":"Ukraina","localised_name":null,"is_group":false,"has_announcements":false},{"id":2204646,"name":"Zp 143 Km","name_slug":"zp-143-km","latitude":null,"longitude":null,"hits":0,"ibnr":null,"city":"","region":"","country":"Ukraina","localised_name":null,"is_group":false,"has_announcements":false},{"id":8474,"name":"Smętowo","name_slug":"smetowo","latitude":53.74805987,"longitude":18.68777928,"hits":3888,"ibnr":520,"city":"Smętowo Graniczne","region":"pomorskie","country":"Polska","localised_name":null,"is_group":false,"has_announcements":false},{"id":2200368,"name":"Sakhkamin","name_slug":"sakhkamin","latitude":48.8554167,"longitude":26.6016769,"hits":0,"ibnr":null,"city":"","region":"","country":"Ukraina","localised_name":null,"is_group":false,"has_announcements":false},{"id":901117,"name":"Szadek PKS","name_slug":"szadek-pks","latitude":51.67769759999999,"longitude":18.9620453,"hits":1181,"ibnr":10158,"city":"","region":"","country":"Polska","localised_name":null,"is_group":false,"has_announcements":false},{"id":76778,"name":"Milówka","name_slug":"milowka","latitude":49.5558373,"longitude":19.09527931,"hits":3735,"ibnr":4219,"city":"Milówka","region":"śląskie","country":"Polska","localised_name":null,"is_group":false,"has_announcements":false},{"id":36525,"name":"Legionowo Piaski","name_slug":"legionowo-piaski","latitude":52.4122,"longitude":20.94209,"hits":3452,"ibnr":1233,"city":"Legionowo","region":"mazowieckie","country":"Polska","localised_name":null,"is_group":false,"has_announcements":false},{"id":2200146,"name":"Rokytna","name_slug":"rokytna","latitude":49.6957004,"longitude":30.5073879,"hits":0,"ibnr":null,"city":"","region":"","country":"Ukraina","localised_name":null,"is_group":false,"has_announcements":false},{"id":2428,"name":"Tarnowo Pomorskie","name_slug":"tarnowo-pomorskie","latitude":53.30627528303,"longitude":15.365549770109,"hits":2190,"ibnr":8403,"city":"Tarnowo","region":"zachodniopomorskie","country":"Polska","localised_name":null,"is_group":false,"has_announcements":false},{"id":2208003,"name":"Ost.Punkt 25 Km","name_slug":"ost-punkt-25-km-4e767822-e513-4d56-8be9-3a38ed7ddf39","latitude":46.3326979,"longitude":30.5999016,"hits":0,"ibnr":null,"city":"","region":"","country":"Ukraina","localised_name":null,"is_group":false,"has_announcements":false},{"id":56424,"name":"Ziębice","name_slug":"ziebice","latitude":50.60861517,"longitude":17.03527914,"hits":3957,"ibnr":6550,"city":"Ziębice","region":"dolnośląskie","country":"Polska","localised_name":null,"is_group":false,"has_announcements":false},{"id":2200304,"name":"Kalynovka","name_slug":"kalynovka","latitude":50.4183555,"longitude":29.8403427,"hits":0,"ibnr":null,"city":"","region":"","country":"Ukraina","localised_name":null,"is_group":false,"has_announcements":false},{"id":2100147,"name":"Lovcha","name_slug":"lovcha","latitude":52.2966087,"longitude":26.617672,"hits":0,"ibnr":null,"city":"","region":"","country":"Białoruś","localised_name":null,"is_group":false,"has_announcements":false},{"id":7898,"name":"Królewo Malborskie","name_slug":"krolewo-malborskie","latitude":54.03735723937,"longitude":19.1173675680606,"hits":2561,"ibnr":5308,"city":"Królewo","region":"pomorskie","country":"Polska","localised_name":null,"is_group":false,"has_announcements":false},{"id":2210198,"name":"Platforma 91 Km","name_slug":"platforma-91-km","latitude":48.4128299,"longitude":36.1047691,"hits":0,"ibnr":null,"city":"","region":"","country":"Ukraina","localised_name":null,"is_group":false,"has_announcements":false},{"id":2210671,"name":"Zachepylivka","name_slug":"zachepylivka","latitude":49.2137443,"longitude":35.2273028,"hits":0,"ibnr":null,"city":"","region":"","country":"Ukraina","localised_name":null,"is_group":false,"has_announcements":false},{"id":49585,"name":"Sołtyków","name_slug":"soltykow","latitude":51.1367578120119,"longitude":20.6925281161294,"hits":1483,"ibnr":2226,"city":"","region":"","country":"Polska","localised_name":null,"is_group":false,"has_announcements":false},{"id":30452,"name":"Mosina","name_slug":"mosina","latitude":52.2392997876636,"longitude":16.8514407060204,"hits":4102,"ibnr":7291,"city":"Mosina","region":"wielkopolskie","country":"Polska","localised_name":null,"is_group":false,"has_announcements":false},{"id":2100483,"name":"Sosnitsa","name_slug":"sosnitsa","latitude":null,"longitude":null,"hits":0,"ibnr":null,"city":"","region":"","country":"Białoruś","localised_name":null,"is_group":false,"has_announcements":false},{"id":49577,"name":"Czarniecka Góra","name_slug":"czarniecka-gora","latitude":51.1440807937307,"longitude":20.5206189314584,"hits":1379,"ibnr":2053,"city":"","region":"","country":"Polska","localised_name":null,"is_group":false,"has_announcements":false},{"id":2214238,"name":"Monakhove","name_slug":"monakhove","latitude":48.148143,"longitude":38.11358,"hits":0,"ibnr":null,"city":"","region":"","country":"Ukraina","localised_name":null,"is_group":false,"has_announcements":false},{"id":75853,"name":"Pruchna","name_slug":"pruchna","latitude":49.878768,"longitude":18.688618,"hits":2357,"ibnr":4265,"city":"Pruchna","region":"śląskie","country":"Polska","localised_name":null,"is_group":false,"has_announcements":false},{"id":2204854,"name":"Ost.Punkt 122 Km","name_slug":"ost-punkt-122-km","latitude":49.1828906,"longitude":35.7872744,"hits":0,"ibnr":null,"city":"","region":"","country":"Ukraina","localised_name":null,"is_group":false,"has_announcements":false},{"id":2100506,"name":"Rakitno","name_slug":"rakitno","latitude":52.2330275,"longitude":26.9357002,"hits":158,"ibnr":null,"city":"","region":"","country":"Białoruś","localised_name":null,"is_group":false,"has_announcements":false},{"id":2100673,"name":"Osmolovichi","name_slug":"osmolovichi","latitude":53.522943,"longitude":32.0092819,"hits":0,"ibnr":null,"city":"","region":"","country":"Białoruś","localised_name":null,"is_group":false,"has_announcements":false},{"id":2218837,"name":"Martyniv","name_slug":"martyniv","latitude":49.2342908,"longitude":24.598831,"hits":0,"ibnr":null,"city":"","region":"","country":"Ukraina","localised_name":null,"is_group":false,"has_announcements":false},{"id":900959,"name":"Kłocko PKS","name_slug":"klocko-pks","latitude":50.4370053,"longitude":16.6578803,"hits":1376,"ibnr":10189,"city":"","region":"","country":"Polska","localised_name":null,"is_group":false,"has_announcements":false},{"id":1000001,"name":"Kořenov","name_slug":"korenov","latitude":50.7701,"longitude":15.365712,"hits":1187,"ibnr":9311,"city":"","region":"","country":"Czechy","localised_name":null,"is_group":false,"has_announcements":false},{"id":2214081,"name":"Klishchiivka","name_slug":"klishchiivka","latitude":48.5404341,"longitude":37.9709683,"hits":0,"ibnr":null,"city":"","region":"","country":"Ukraina","localised_name":null,"is_group":false,"has_announcements":false},{"id":2214261,"name":"Zup. Punkt 48 Km","name_slug":"zup-punkt-48-km-ed6da233-dc1c-4361-9537-5780ed885e05","latitude":48.0374668,"longitude":38.4507621,"hits":0,"ibnr":null,"city":"","region":"","country":"Ukraina","localised_name":null,"is_group":false,"has_announcements":false},{"id":2204836,"name":"Honcharivka","name_slug":"honcharivka","latitude":49.4557942,"longitude":38.0882438,"hits":0,"ibnr":null,"city":"","region":"","country":"Ukraina","localised_name":null,"is_group":false,"has_announcements":false},{"id":258646,"name":"Warszawa Mokry Ług","name_slug":"warszawa-mokry-lug","latitude":52.277237,"longitude":21.170485,"hits":2521,"ibnr":1480,"city":"Warszawa","region":"mazowieckie","country":"Polska","localised_name":null,"is_group":false,"has_announcements":false},{"id":2204545,"name":"Bodakva","name_slug":"bodakva","latitude":50.29161999999999,"longitude":33.45780999999999,"hits":0,"ibnr":null,"city":"","region":"","country":"Ukraina","localised_name":null,"is_group":false,"has_announcements":false},{"id":13417,"name":"Mieszkowice","name_slug":"mieszkowice","latitude":52.78139312,"longitude":14.48889005,"hits":3705,"ibnr":8230,"city":"Mieszkowice","region":"zachodniopomorskie","country":"Polska","localised_name":null,"is_group":false,"has_announcements":false},{"id":44131,"name":"Kobylin","name_slug":"kobylin","latitude":51.720047,"longitude":17.22335,"hits":3296,"ibnr":7197,"city":"Kobylin","region":"wielkopolskie","country":"Polska","localised_name":null,"is_group":false,"has_announcements":false},{"id":30882,"name":"Żydowo","name_slug":"zydowo","latitude":52.4536,"longitude":17.56811,"hits":2867,"ibnr":7570,"city":"Żydowo","region":"wielkopolskie","country":"Polska","localised_name":null,"is_group":false,"has_announcements":false},{"id":54700,"name":"Świdnica Przedmieście","name_slug":"swidnica-przedmiescie","latitude":50.8350247,"longitude":16.504019,"hits":2771,"ibnr":6461,"city":"","region":"","country":"Polska","localised_name":null,"is_group":false,"has_announcements":false},{"id":2204969,"name":"Bereka","name_slug":"bereka","latitude":49.4360736,"longitude":36.1476491,"hits":0,"ibnr":null,"city":"","region":"","country":"Ukraina","localised_name":null,"is_group":false,"has_announcements":false},{"id":2100316,"name":"Bel","name_slug":"bel","latitude":53.8027602,"longitude":31.6604029,"hits":389,"ibnr":null,"city":"","region":"","country":"Białoruś","localised_name":null,"is_group":false,"has_announcements":false},{"id":20255,"name":"Wrocławki","name_slug":"wroclawki","latitude":53.24046,"longitude":18.60984,"hits":2569,"ibnr":5701,"city":"Papowo Biskupie","region":"kujawsko-pomorskie","country":"Polska","localised_name":null,"is_group":false,"has_announcements":false},{"id":2210837,"name":"Storozheve","name_slug":"storozheve","latitude":45.1595355,"longitude":33.9229534,"hits":0,"ibnr":null,"city":"","region":"","country":"Ukraina","localised_name":null,"is_group":false,"has_announcements":false},{"id":2209474,"name":"Yemylivka","name_slug":"yemylivka","latitude":48.3386261,"longitude":30.5987818,"hits":0,"ibnr":null,"city":"","region":"","country":"Ukraina","localised_name":null,"is_group":false,"has_announcements":false},{"id":2218262,"name":"Obariv","name_slug":"obariv","latitude":50.677711,"longitude":26.176627,"hits":0,"ibnr":null,"city":"","region":"","country":"Ukraina","localised_name":null,"is_group":false,"has_announcements":false},{"id":6726,"name":"Swarzewo","name_slug":"swarzewo","latitude":54.75259,"longitude":18.3824283,"hits":3496,"ibnr":5608,"city":"Gnieżdżewo","region":"pomorskie","country":"Polska","localised_name":null,"is_group":false,"has_announcements":false},{"id":2100514,"name":"Ratomka","name_slug":"ratomka","latitude":53.9408614,"longitude":27.3476019,"hits":0,"ibnr":null,"city":"","region":"","country":"Białoruś","localised_name":null,"is_group":false,"has_announcements":false},{"id":83246,"name":"Nowa Sarzyna","name_slug":"nowa-sarzyna","latitude":50.31972625,"longitude":22.35139068,"hits":3374,"ibnr":3195,"city":"Nowa Sarzyna","region":"podkarpackie","country":"Polska","localised_name":null,"is_group":false,"has_announcements":false},{"id":2204392,"name":"Vovchansk","name_slug":"vovchansk","latitude":50.2837505,"longitude":36.9193108,"hits":0,"ibnr":null,"city":"","region":"","country":"Ukraina","localised_name":null,"is_group":false,"has_announcements":false},{"id":2100558,"name":"Haritony","name_slug":"haritony","latitude":40.6584289,"longitude":-73.7008081,"hits":0,"ibnr":null,"city":"","region":"","country":"Białoruś","localised_name":null,"is_group":false,"has_announcements":false},{"id":2201229,"name":"Dovbyshche","name_slug":"dovbyshche","latitude":50.0316465,"longitude":28.0537632,"hits":0,"ibnr":null,"city":"","region":"","country":"Ukraina","localised_name":null,"is_group":false,"has_announcements":false},{"id":2210731,"name":"Novofedorivka","name_slug":"novofedorivka","latitude":45.2866986,"longitude":35.0661798,"hits":0,"ibnr":null,"city":"","region":"","country":"Ukraina","localised_name":null,"is_group":false,"has_announcements":false},{"id":3632,"name":"Świdwin","name_slug":"swidwin","latitude":53.7813932,"longitude":15.77416793,"hits":4042,"ibnr":8398,"city":"Świdwin","region":"zachodniopomorskie","country":"Polska","localised_name":null,"is_group":false,"has_announcements":false},{"id":2204676,"name":"Piatypole","name_slug":"piatypole","latitude":null,"longitude":null,"hits":0,"ibnr":null,"city":"","region":"","country":"Ukraina","localised_name":null,"is_group":false,"has_announcements":false},{"id":77834,"name":"Chrzanów Śródmieście","name_slug":"chrzanow-srodmiescie","latitude":50.1438476521245,"longitude":19.4136919496113,"hits":3692,"ibnr":3054,"city":"Chrzanów","region":"małopolskie","country":"Polska","localised_name":null,"is_group":false,"has_announcements":false},{"id":81547,"name":"Chorzelów","name_slug":"chorzelow","latitude":50.3439061,"longitude":21.4510864,"hits":1116,"ibnr":3053,"city":"","region":"","country":"Polska","localised_name":null,"is_group":false,"has_announcements":false},{"id":2210778,"name":"Vysun","name_slug":"vysun","latitude":47.9802006,"longitude":32.8669036,"hits":0,"ibnr":null,"city":"","region":"","country":"Ukraina","localised_name":null,"is_group":false,"has_announcements":false},{"id":1000032,"name":"Berlin Ostkreuz","name_slug":"berlin-ostkreuz","latitude":52.503037,"longitude":13.469105,"hits":3152,"ibnr":9425,"city":"","region":"","country":"Niemcy","localised_name":null,"is_group":false,"has_announcements":false},{"id":2210679,"name":"Ivkivka","name_slug":"ivkivka","latitude":48.2422601,"longitude":35.4865157,"hits":0,"ibnr":null,"city":"","region":"","country":"Ukraina","localised_name":null,"is_group":false,"has_announcements":false},{"id":2204747,"name":"Stupivka","name_slug":"stupivka","latitude":50.766434,"longitude":35.2874758,"hits":0,"ibnr":null,"city":"","region":"","country":"Ukraina","localised_name":null,"is_group":false,"has_announcements":false},{"id":242837,"name":"Tychy Grota Roweckiego","name_slug":"tychy-grota-roweckiego","latitude":50.11384,"longitude":18.98661,"hits":3330,"ibnr":4374,"city":"Tychy","region":"śląskie","country":"Polska","localised_name":null,"is_group":false,"has_announcements":false},{"id":61333,"name":"Biskupice koło Kluczborka","name_slug":"biskupice-kolo-kluczborka","latitude":51.0710705244633,"longitude":18.2097132015544,"hits":1539,"ibnr":6038,"city":"Paruszowice","region":"opolskie","country":"Polska","localised_name":null,"is_group":false,"has_announcements":false},{"id":2204622,"name":"Korzhykha","name_slug":"korzhykha","latitude":49.350627,"longitude":35.2869266,"hits":0,"ibnr":null,"city":"","region":"","country":"Ukraina","localised_name":null,"is_group":false,"has_announcements":false},{"id":39909,"name":"Łuków","name_slug":"lukow","latitude":51.94194444,"longitude":22.39083333,"hits":4180,"ibnr":115,"city":"Łuków","region":"lubelskie","country":"Polska","localised_name":null,"is_group":false,"has_announcements":false},{"id":73700,"name":"Tychy","name_slug":"tychy","latitude":50.13444846,"longitude":18.96472375,"hits":4198,"ibnr":230,"city":"Tychy","region":"śląskie","country":"Polska","localised_name":null,"is_group":false,"has_announcements":false},{"id":2218043,"name":"Ovadne","name_slug":"ovadne","latitude":50.92827,"longitude":24.3853,"hits":0,"ibnr":null,"city":"","region":"","country":"Ukraina","localised_name":null,"is_group":false,"has_announcements":false},{"id":2100749,"name":"Murovanka","name_slug":"murovanka","latitude":53.6563969,"longitude":24.0203296,"hits":321,"ibnr":null,"city":"","region":"","country":"Białoruś","localised_name":null,"is_group":false,"has_announcements":false},{"id":32839,"name":"Zawidz Kościelny","name_slug":"zawidz-koscielny","latitude":52.824083,"longitude":19.87795,"hits":2321,"ibnr":1549,"city":"Zawidz Kościelny","region":"mazowieckie","country":"Polska","localised_name":null,"is_group":false,"has_announcements":false},{"id":2201205,"name":"Kniazhychi","name_slug":"kniazhychi","latitude":50.495619,"longitude":30.784123,"hits":0,"ibnr":null,"city":"","region":"","country":"Ukraina","localised_name":null,"is_group":false,"has_announcements":false},{"id":2218873,"name":"Pisochne","name_slug":"pisochne","latitude":49.449878,"longitude":23.9561331,"hits":0,"ibnr":null,"city":"","region":"","country":"Ukraina","localised_name":null,"is_group":false,"has_announcements":false},{"id":2100335,"name":"Zababye","name_slug":"zababye","latitude":52.7879495,"longitude":30.4007096,"hits":501,"ibnr":null,"city":"","region":"","country":"Białoruś","localised_name":null,"is_group":false,"has_announcements":false},{"id":2214372,"name":"Solidarnyi","name_slug":"solidarnyi","latitude":null,"longitude":null,"hits":366,"ibnr":null,"city":"","region":"","country":"Ukraina","localised_name":null,"is_group":false,"has_announcements":false},{"id":29017,"name":"Drawski Młyn","name_slug":"drawski-mlyn","latitude":52.8603349848707,"longitude":16.0933808316448,"hits":3370,"ibnr":7109,"city":"Osiedle Robotnicze","region":"wielkopolskie","country":"Polska","localised_name":null,"is_group":false,"has_announcements":false},{"id":18614,"name":"Dąbrowa Chełmińska","name_slug":"dabrowa-chelminska","latitude":53.1752,"longitude":18.2822,"hits":2646,"ibnr":5108,"city":"Reptowo","region":"kujawsko-pomorskie","country":"Polska","localised_name":null,"is_group":false,"has_announcements":false},{"id":2100850,"name":"Krayevo","name_slug":"krayevo","latitude":55.2383007,"longitude":29.8571988,"hits":0,"ibnr":null,"city":"","region":"","country":"Białoruś","localised_name":null,"is_group":false,"has_announcements":false},{"id":32722,"name":"Koziołek","name_slug":"koziolek","latitude":52.86579,"longitude":19.49836,"hits":1736,"ibnr":1219,"city":"Modrzewie","region":"mazowieckie","country":"Polska","localised_name":null,"is_group":false,"has_announcements":false},{"id":2100866,"name":"Asanovskiy","name_slug":"asanovskiy","latitude":54.3317515,"longitude":26.7302944,"hits":0,"ibnr":null,"city":"","region":"","country":"Białoruś","localised_name":null,"is_group":false,"has_announcements":false},{"id":40147,"name":"Hordzieżka","name_slug":"hordziezka","latitude":51.7541386188802,"longitude":22.1603962813448,"hits":1971,"ibnr":1160,"city":"Hordzieżka","region":"lubelskie","country":"Polska","localised_name":null,"is_group":false,"has_announcements":false},{"id":2218283,"name":"Maidan","name_slug":"maidan","latitude":49.0162516,"longitude":24.5566555,"hits":0,"ibnr":null,"city":"","region":"","country":"Ukraina","localised_name":null,"is_group":false,"has_announcements":false},{"id":2100913,"name":"Molodezhny","name_slug":"molodezhny","latitude":54.4717814,"longitude":26.4057678,"hits":0,"ibnr":null,"city":"","region":"","country":"Białoruś","localised_name":null,"is_group":false,"has_announcements":false},{"id":901060,"name":"Prusy PKS","name_slug":"prusy-pks","latitude":50.118277,"longitude":20.091183,"hits":900,"ibnr":10077,"city":"","region":"","country":"Polska","localised_name":null,"is_group":false,"has_announcements":false},{"id":9738,"name":"Wipsowo","name_slug":"wipsowo","latitude":53.8951102035611,"longitude":20.7977401541322,"hits":2580,"ibnr":5692,"city":"Wipsowo","region":"warmińsko-mazurskie","country":"Polska","localised_name":null,"is_group":false,"has_announcements":false},{"id":73403,"name":"Sosnowiec Dańdówka","name_slug":"sosnowiec-dandowka","latitude":50.2653987091385,"longitude":19.1731697130241,"hits":3033,"ibnr":4310,"city":"Sosnowiec","region":"śląskie","country":"Polska","localised_name":null,"is_group":false,"has_announcements":false},{"id":901955,"name":"Miłkowice PKS","name_slug":"milkowice-pks","latitude":null,"longitude":null,"hits":583,"ibnr":10549,"city":"","region":"","country":"Polska","localised_name":null,"is_group":false,"has_announcements":false},{"id":901044,"name":"Piaski, gm. Nieborów PKS","name_slug":"piaski-gm-nieborow-pks","latitude":52.0901521,"longitude":20.0528468,"hits":1023,"ibnr":10095,"city":"","region":"","country":"Polska","localised_name":null,"is_group":false,"has_announcements":false},{"id":2200750,"name":"Olshanytsia","name_slug":"olshanytsia","latitude":49.6580397,"longitude":30.6485694,"hits":0,"ibnr":null,"city":"","region":"","country":"Ukraina","localised_name":null,"is_group":false,"has_announcements":false},{"id":900932,"name":"Huta Wałowska PKS","name_slug":"huta-walowska-pks","latitude":50.8266875,"longitude":15.4970859,"hits":976,"ibnr":10139,"city":"","region":"","country":"Polska","localised_name":null,"is_group":false,"has_announcements":false},{"id":2208110,"name":"Stavky","name_slug":"stavky","latitude":47.2931301,"longitude":31.3018548,"hits":0,"ibnr":null,"city":"","region":"","country":"Ukraina","localised_name":null,"is_group":false,"has_announcements":false},{"id":9357,"name":"Łęgajny","name_slug":"legajny","latitude":53.8215512448348,"longitude":20.6170925133601,"hits":2114,"ibnr":5328,"city":"Łęgajny","region":"warmińsko-mazurskie","country":"Polska","localised_name":null,"is_group":false,"has_announcements":false},{"id":2200294,"name":"Viitivtsi","name_slug":"viitivtsi","latitude":49.4934891,"longitude":26.4442879,"hits":0,"ibnr":null,"city":"","region":"","country":"Ukraina","localised_name":null,"is_group":false,"has_announcements":false},{"id":2100897,"name":"Bruzgi","name_slug":"bruzgi-b1bf3331-60c2-4768-aa6a-bea4c238e785","latitude":53.5555514,"longitude":23.666636,"hits":0,"ibnr":null,"city":"","region":"","country":"Białoruś","localised_name":null,"is_group":false,"has_announcements":false},{"id":81422,"name":"Tuszyma","name_slug":"tuszyma","latitude":50.1843788386894,"longitude":21.5015471276554,"hits":1590,"ibnr":3229,"city":"","region":"","country":"Polska","localised_name":null,"is_group":false,"has_announcements":false},{"id":70276,"name":"Kotulin","name_slug":"kotulin","latitude":50.4687709824291,"longitude":18.4360633299573,"hits":2258,"ibnr":4178,"city":"Kotulin","region":"śląskie","country":"Polska","localised_name":null,"is_group":false,"has_announcements":false},{"id":12963,"name":"Augustów","name_slug":"augustow","latitude":53.85333764,"longitude":23.02639074,"hits":3880,"ibnr":1,"city":"Augustów","region":"podlaskie","country":"Polska","localised_name":null,"is_group":false,"has_announcements":false},{"id":901079,"name":"Równa PKS","name_slug":"rowna-pks","latitude":50.5917038,"longitude":22.0471979,"hits":1047,"ibnr":10252,"city":"","region":"","country":"Polska","localised_name":null,"is_group":false,"has_announcements":false},{"id":2204680,"name":"Korotych","name_slug":"korotych","latitude":49.9548,"longitude":36.0359456,"hits":0,"ibnr":null,"city":"","region":"","country":"Ukraina","localised_name":null,"is_group":false,"has_announcements":false},{"id":14498,"name":"Krostkowo","name_slug":"krostkowo","latitude":53.1074920283847,"longitude":17.2079678830459,"hits":2115,"ibnr":8189,"city":"Krostkowo","region":"wielkopolskie","country":"Polska","localised_name":null,"is_group":false,"has_announcements":false},{"id":15545,"name":"Dolnik","name_slug":"dolnik","latitude":53.2561684552365,"longitude":16.9301020143085,"hits":1918,"ibnr":8102,"city":"Dolnik","region":"wielkopolskie","country":"Polska","localised_name":null,"is_group":false,"has_announcements":false},{"id":83147,"name":"Tryńcza","name_slug":"tryncza","latitude":50.1371889899434,"longitude":22.5384741124637,"hits":2028,"ibnr":3306,"city":"Wólka Małkowa","region":"podkarpackie","country":"Polska","localised_name":null,"is_group":false,"has_announcements":false},{"id":2218057,"name":"Nesvich-Volynskyi","name_slug":"nesvich-volynskyi","latitude":50.6113516,"longitude":25.1562657,"hits":0,"ibnr":null,"city":"","region":"","country":"Ukraina","localised_name":null,"is_group":false,"has_announcements":false},{"id":2210215,"name":"Platforma 104 Km","name_slug":"platforma-104-km","latitude":48.4628045,"longitude":34.0666578,"hits":0,"ibnr":null,"city":"","region":"","country":"Ukraina","localised_name":null,"is_group":false,"has_announcements":false},{"id":2208112,"name":"Ost.Punkt 49 Km","name_slug":"ost-punkt-49-km","latitude":46.1658118,"longitude":30.5571428,"hits":0,"ibnr":null,"city":"","region":"","country":"Ukraina","localised_name":null,"is_group":false,"has_announcements":false},{"id":78402,"name":"Sucha Beskidzka","name_slug":"sucha-beskidzka","latitude":49.74055954,"longitude":19.58250158,"hits":3929,"ibnr":3291,"city":"Sucha Beskidzka","region":"małopolskie","country":"Polska","localised_name":null,"is_group":false,"has_announcements":false},{"id":40956,"name":"Ogrodniki","name_slug":"ogrodniki","latitude":52.0009849230637,"longitude":23.2377863287282,"hits":1818,"ibnr":1313,"city":"Włóka","region":"lubelskie","country":"Polska","localised_name":null,"is_group":false,"has_announcements":false},{"id":2204801,"name":"Borivska Pivdenna","name_slug":"borivska-pivdenna","latitude":49.8063551,"longitude":36.2960831,"hits":0,"ibnr":null,"city":"","region":"","country":"Ukraina","localised_name":null,"is_group":false,"has_announcements":false},{"id":76133,"name":"Bielsko-Biała Północ","name_slug":"bielsko-biala-polnoc","latitude":49.841944,"longitude":19.041389,"hits":3339,"ibnr":4039,"city":"Bielsko-Biała","region":"śląskie","country":"Polska","localised_name":null,"is_group":false,"has_announcements":false},{"id":2208614,"name":"Kryklyvytsi","name_slug":"kryklyvytsi","latitude":48.3208638,"longitude":28.928722,"hits":0,"ibnr":null,"city":"","region":"","country":"Ukraina","localised_name":null,"is_group":false,"has_announcements":false},{"id":9480,"name":"Dobrzyń","name_slug":"dobrzyn","latitude":53.4359836515463,"longitude":20.3849537550935,"hits":1769,"ibnr":5116,"city":"Dobrzyń","region":"warmińsko-mazurskie","country":"Polska","localised_name":null,"is_group":false,"has_announcements":false},{"id":241966,"name":"Wrocław Stadion","name_slug":"wroclaw-stadion","latitude":51.1372678,"longitude":16.9405452,"hits":3803,"ibnr":6519,"city":"Wrocław","region":"dolnośląskie","country":"Polska","localised_name":null,"is_group":false,"has_announcements":false},{"id":2200409,"name":"Chop border Gr","name_slug":"chop-border-gr","latitude":50.4261013,"longitude":30.4090614,"hits":0,"ibnr":null,"city":"","region":"","country":"Ukraina","localised_name":null,"is_group":false,"has_announcements":false},{"id":500000,"name":"Praha hl.n.","name_slug":"praha-hl-n","latitude":50.083219,"longitude":14.435115,"hits":4142,"ibnr":null,"city":"Praga","region":"Praga","country":"Czechy","localised_name":"Praga Główna","is_group":false,"has_announcements":false},{"id":74344,"name":"Zarzecze","name_slug":"zarzecze","latitude":50.36306,"longitude":19.6985,"hits":2772,"ibnr":4392,"city":"Zarzecze","region":"małopolskie","country":"Polska","localised_name":null,"is_group":false,"has_announcements":false},{"id":2218338,"name":"Luh","name_slug":"luh","latitude":48.9828116,"longitude":22.770898,"hits":0,"ibnr":null,"city":"","region":"","country":"Ukraina","localised_name":null,"is_group":false,"has_announcements":false},{"id":43331,"name":"Błotnica","name_slug":"blotnica","latitude":51.9964337639042,"longitude":16.2999640696818,"hits":3178,"ibnr":7038,"city":"Błotnica","region":"wielkopolskie","country":"Polska","localised_name":null,"is_group":false,"has_announcements":false},{"id":81703,"name":"Gorlice Zagórzany","name_slug":"gorlice-zagorzany","latitude":49.69389287,"longitude":21.19666837,"hits":3539,"ibnr":3079,"city":"Gorlice","region":"małopolskie","country":"Polska","localised_name":null,"is_group":false,"has_announcements":false},{"id":2100530,"name":"Degtyaryevka","name_slug":"degtyaryevka","latitude":53.8929509,"longitude":27.3501905,"hits":211,"ibnr":null,"city":"","region":"","country":"Białoruś","localised_name":null,"is_group":false,"has_announcements":false},{"id":2209445,"name":"Peredbuzhzhia","name_slug":"peredbuzhzhia","latitude":48.345682,"longitude":29.8154674,"hits":0,"ibnr":null,"city":"","region":"","country":"Ukraina","localised_name":null,"is_group":false,"has_announcements":false},{"id":22079,"name":"Stare Jabłonki","name_slug":"stare-jablonki","latitude":53.6911056832479,"longitude":20.0940370288896,"hits":3088,"ibnr":5585,"city":"Stare Jabłonki","region":"warmińsko-mazurskie","country":"Polska","localised_name":null,"is_group":false,"has_announcements":false},{"id":2214355,"name":"Krasnyi Luch","name_slug":"krasnyi-luch","latitude":48.1415859,"longitude":38.9250152,"hits":0,"ibnr":null,"city":"","region":"","country":"Ukraina","localised_name":null,"is_group":false,"has_announcements":false},{"id":48959,"name":"Opoczno Południe","name_slug":"opoczno-poludnie","latitude":51.36,"longitude":20.23472222,"hits":4083,"ibnr":2172,"city":"Świerczyna","region":"łódzkie","country":"Polska","localised_name":null,"is_group":false,"has_announcements":false},{"id":2100622,"name":"Prilutchina","name_slug":"prilutchina","latitude":52.4299059,"longitude":24.3922931,"hits":0,"ibnr":null,"city":"","region":"","country":"Białoruś","localised_name":null,"is_group":false,"has_announcements":false},{"id":1000071,"name":"Jiřetín pod Bukovou","name_slug":"jiretin-pod-bukovou-3c65b05c-c40e-450d-b7d2-9d320e3481f5","latitude":50.756901,"longitude":15.263818,"hits":575,"ibnr":9330,"city":"","region":"","country":"","localised_name":null,"is_group":false,"has_announcements":false},{"id":2201162,"name":"Radivtsi","name_slug":"radivtsi","latitude":49.1776885,"longitude":27.7150347,"hits":0,"ibnr":null,"city":"","region":"","country":"Ukraina","localised_name":null,"is_group":false,"has_announcements":false},{"id":77123,"name":"Gorzów Chrzanowski","name_slug":"gorzow-chrzanowski","latitude":50.073542610701,"longitude":19.2418558715652,"hits":2232,"ibnr":4111,"city":"Gorzów Wlp","region":"małopolskie","country":"Polska","localised_name":null,"is_group":false,"has_announcements":false},{"id":2200089,"name":"Spartak","name_slug":"spartak","latitude":50.6748619,"longitude":29.7395799,"hits":170,"ibnr":null,"city":"","region":"","country":"Ukraina","localised_name":null,"is_group":false,"has_announcements":false},{"id":2210846,"name":"Samokhvalove","name_slug":"samokhvalove","latitude":44.7991812,"longitude":33.89813,"hits":0,"ibnr":null,"city":"","region":"","country":"Ukraina","localised_name":null,"is_group":false,"has_announcements":false},{"id":2204200,"name":"Petrivka","name_slug":"petrivka","latitude":50.486079,"longitude":30.497848,"hits":0,"ibnr":null,"city":"","region":"","country":"Ukraina","localised_name":null,"is_group":false,"has_announcements":false},{"id":264960,"name":"Wisła Jawornik","name_slug":"wisla-jawornik","latitude":49.669322,"longitude":18.847276,"hits":1395,"ibnr":6583,"city":"","region":"","country":"","localised_name":null,"is_group":false,"has_announcements":false},{"id":901141,"name":"Walew PKS","name_slug":"walew-pks","latitude":52.0575352,"longitude":19.2042616,"hits":894,"ibnr":10028,"city":"","region":"","country":"Polska","localised_name":null,"is_group":false,"has_announcements":false},{"id":2218218,"name":"Tatariv","name_slug":"tatariv","latitude":48.2933597,"longitude":24.5646972,"hits":0,"ibnr":null,"city":"","region":"","country":"Ukraina","localised_name":"Tatarów","is_group":false,"has_announcements":false},{"id":2218841,"name":"Pidvysoke","name_slug":"pidvysoke","latitude":49.3800572,"longitude":24.7781138,"hits":0,"ibnr":null,"city":"","region":"","country":"Ukraina","localised_name":null,"is_group":false,"has_announcements":false},{"id":79665,"name":"Rzezawa","name_slug":"rzezawa","latitude":49.9844352620391,"longitude":20.5117974645603,"hits":3498,"ibnr":3261,"city":"Rzezawa","region":"małopolskie","country":"Polska","localised_name":null,"is_group":false,"has_announcements":false},{"id":2101038,"name":"Staraya Ves","name_slug":"staraya-ves","latitude":53.1519752,"longitude":24.890699,"hits":0,"ibnr":null,"city":"","region":"","country":"Białoruś","localised_name":null,"is_group":false,"has_announcements":false},{"id":58313,"name":"Zakrzów Kotowice","name_slug":"zakrzow-kotowice","latitude":51.0355560427357,"longitude":17.2108800979574,"hits":3292,"ibnr":6537,"city":"Kotowice","region":"dolnośląskie","country":"Polska","localised_name":null,"is_group":false,"has_announcements":false},{"id":2218115,"name":"Chop","name_slug":"chop","latitude":32.8171653,"longitude":-96.8111264,"hits":43,"ibnr":null,"city":"","region":"","country":"Ukraina","localised_name":null,"is_group":false,"has_announcements":false},{"id":900989,"name":"Lipno PKS","name_slug":"lipno-pks","latitude":52.8477885,"longitude":19.1794423,"hits":1112,"ibnr":10238,"city":"","region":"","country":"Polska","localised_name":null,"is_group":false,"has_announcements":false},{"id":17764,"name":"Wieżyca","name_slug":"wiezyca","latitude":54.2339668548817,"longitude":18.1296444750436,"hits":3430,"ibnr":5686,"city":"Rybaki","region":"pomorskie","country":"Polska","localised_name":null,"is_group":false,"has_announcements":false},